MarkerId,MarkerNumber,Title,Subtitle,Annotation,YearErected,ErectedBy,Latitude,Longitude,StreetAddress,City,City,State,Location,Missing,Link
6218,,Batteries 2 and 3,,,,National Park Service,29.9415,-89.99423,,Chalmette,St. Bernard Parish,Louisiana,Marker can be reached from Battlefield Road. ,,http://www.hmdb.org/m.asp?m=6218
6219,,Redoubt and Battery 1,,,,National Park Service,29.94106,-89.99446,,Chalmette,St. Bernard Parish,Louisiana,Marker can be reached from Battlefield Road. <font color=red> Reported missing.</font>,Reported Missing,http://www.hmdb.org/m.asp?m=6219
6221,,The Battle on the West Bank,,,,"National Park Service, U.S. Department of the Interior",29.94101,-89.99456,,Chalmette,St. Bernard Parish,Louisiana,Marker can be reached from Battlefield Road. <font color=red> Reported missing.</font>,Reported Missing,http://www.hmdb.org/m.asp?m=6221
6222,,In Memory of Major Samuel Spotts U.S.A.,,,,,29.94072,-89.99526,,Chalmette,St. Bernard Parish,Louisiana,Marker can be reached from Battlefield Road. ,,http://www.hmdb.org/m.asp?m=6222
6223,,Rodriguez Canal,,,,National Park Service,29.94178,-89.99405,,Chalmette,St. Bernard Parish,Louisiana,Marker can be reached from Battlefield Road. ,,http://www.hmdb.org/m.asp?m=6223
6243,,British Strategy,,,,National Park Service,29.94039,-89.99243,,Chalmette,St. Bernard Parish,Louisiana,"Marker is on Battlefield Road, on the left when traveling east. <font color=red> Reported missing.</font>",Reported Missing,http://www.hmdb.org/m.asp?m=6243
6244,,Lethal Exposure,,,,National Park Service,29.94,-89.98994,,Chalmette,St. Bernard Parish,Louisiana,"Marker is on Battlefield Road, on the left when traveling north. <font color=red> Reported missing.</font>",Reported Missing,http://www.hmdb.org/m.asp?m=6244
6248,,“Where Has Our Equipment Gone?”,,,,National Park Service,29.94157,-89.98906,,Chalmette,St. Bernard Parish,Louisiana,"Marker is on Battlefield Road, on the left when traveling north. <font color=red> Reported missing.</font>",Reported Missing,http://www.hmdb.org/m.asp?m=6248
6251,,The Battle Ends,,,,National Park Service,29.94419,-89.98925,,Chalmette,St. Bernard Parish,Louisiana,"Marker is on Battlefield Road, on the left when traveling west. <font color=red> Reported missing.</font>",Reported Missing,http://www.hmdb.org/m.asp?m=6251
6271,,Batteries 5 and 6,,,,National Park Service,29.945,-89.99249,,Chalmette,St. Bernard Parish,Louisiana,"Marker is on Battlefield Road, on the left when traveling south. <font color=red> Reported missing.</font>",Reported Missing,http://www.hmdb.org/m.asp?m=6271
6273,,Battery 4,,,,National Park Service,29.94299,-89.99372,,Chalmette,St. Bernard Parish,Louisiana,"Marker is on Battlefield Road, on the left when traveling south. <font color=red> Reported missing.</font>",Reported Missing,http://www.hmdb.org/m.asp?m=6273
7575,,C.S.A. Brigadier General Tom Green,,,2008,Louisiana Society Order of The Confederate Rose,31.93462,-93.29976,,Lake End,Red River Parish,Louisiana,"Marker is on the Lock and Dam No. 4 access road, on the left when traveling north. ",,http://www.hmdb.org/m.asp?m=7575
7848,,Fort Buhlow and Fort Randolph,,,,T. O. Moore Chapter of the United Daughters of the Confederacy,31.32721,-92.44822,,Pineville,Rapides Parish,Louisiana,"Marker is on Monroe Highway (U.S. 71/165) near Rainbow Drive, on the left when traveling east. <font color=red> Reported missing.</font>",Reported Missing,http://www.hmdb.org/m.asp?m=7848
10104,,England AFB Heritage Park,,,,,31.3261,-92.52932,,Alexandria,Rapides Parish,Louisiana,"Marker is on England Drive, on the left when traveling east. ",,http://www.hmdb.org/m.asp?m=10104
10107,,Republic F-84F Thunderstreak,,,,,31.32637,-92.52913,,Alexandria,Rapides Parish,Louisiana,"Marker is on England Drive, on the left when traveling east. ",,http://www.hmdb.org/m.asp?m=10107
10109,,Republic F-105 Thunderchief,,,,,31.32655,-92.52925,,Alexandria,Rapides Parish,Louisiana,"Marker is on England Drive, on the left when traveling east. ",,http://www.hmdb.org/m.asp?m=10109
10110,,Fairchild Republic A-10 Thunderbolt II,,,,,31.3266,-92.52942,,Alexandria,Rapides Parish,Louisiana,"Marker is on England Drive, on the left when traveling east. ",,http://www.hmdb.org/m.asp?m=10110
10111,,LTV Aerospace Vought A-7D Corsair II,,,,,31.32648,-92.52962,,Alexandria,Rapides Parish,Louisiana,"Marker is on England Drive, on the left when traveling east. ",,http://www.hmdb.org/m.asp?m=10111
10112,,North American F-86 Sabre,,,,,31.32627,-92.52968,,Alexandria,Rapides Parish,Louisiana,"Marker is on England Drive, on the left when traveling east. ",,http://www.hmdb.org/m.asp?m=10112
10581,,Frogmore Mound,Ancient Mounds Trail,,,,31.60444,-91.67111,11054 Highway 84,Frogmore,Concordia Parish,Louisiana,Marker is at the intersection of Highway 84 and Frogmore Plantation Road on Highway 84. ,,http://www.hmdb.org/m.asp?m=10581
10582,,Relocation of Vidalia,1938–1939,,,,31.56444,-91.41972,,Vidalia,Concordia Parish,Louisiana,Marker can be reached from Concordia Avenue. ,,http://www.hmdb.org/m.asp?m=10582
10583,,"Sidney A. Murray, Jr., Hydroelectric Station",1990,,,,31.56472,-91.41944,,Vidalia,Concordia Parish,Louisiana,Marker can be reached from Concordia Avenue. ,,http://www.hmdb.org/m.asp?m=10583
12678,,Gilbert Academy and New Orleans University,,,1993,Gilbert Academy Alumni Association,29.92765,-90.11163,5318 St. Charles Ave,New Orleans,Orleans Parish,Louisiana,"Marker is at the intersection of St. Charles Avenue and Valmont Street, on the right when traveling east on St. Charles Avenue. ",,http://www.hmdb.org/m.asp?m=12678
12679,,New Orleans,,,1968,Louisiana Tourist Development Commission,29.95731,-90.06209,,New Orleans,Orleans Parish,Louisiana,"Marker is on Decatur Street south of St Ann Street, on the right when traveling north. ",,http://www.hmdb.org/m.asp?m=12679
13036,,Homer Adolph Plessy,1862-1925,,,,29.95922,-90.07185,,New Orleans,Orleans Parish,Louisiana,Marker can be reached from Basin Street. ,,http://www.hmdb.org/m.asp?m=13036
13039,,Jefferson City,,,1979,"Louisiana Department of Culture, Recreation and Tourism",29.92098,-90.115,,New Orleans,Orleans Parish,Louisiana,"Marker is at the intersection of Jefferson Ave and Magazine Street, in the median on Jefferson Ave. ",,http://www.hmdb.org/m.asp?m=13039
13167,,Shangarai Chasset - Gates of Mercy,,,,Jewish American Society for Historic Preservation,29.95852,-90.0702,,New Orleans,Orleans Parish,Louisiana,"Marker is on North Rampart Street, in the median. ",,http://www.hmdb.org/m.asp?m=13167
13501,,St. Louis Cemetery No. 1,,,1972,New Orleans Archdiocesan Cemeteries,29.95913,-90.07107,,New Orleans,Orleans Parish,Louisiana,Marker can be reached from Basin Street. ,,http://www.hmdb.org/m.asp?m=13501
13502,,The St. Charles Line,,,1981,"Department of Culture, Recreation and Tourism",29.94351,-90.1338,,New Orleans,Orleans Parish,Louisiana,"Marker is on South Carrollton Avenue, in the median. ",,http://www.hmdb.org/m.asp?m=13502
13503,,Town of Carrollton,,,1981,"Department of Culture, Recreation and Tourism",29.94419,-90.13292,,New Orleans,Orleans Parish,Louisiana,"Marker is on South Carrollton Avenue, 0 miles west of Maple Blvd., in the median. ",,http://www.hmdb.org/m.asp?m=13503
13504,,The Steamer New Orleans,,,1963,Department of Commerce and Industry,29.95682,-90.06254,,New Orleans,Orleans Parish,Louisiana,"Marker is on Decatur Street, on the right when traveling north. ",,http://www.hmdb.org/m.asp?m=13504
13699,,Marie Laveau,,,,,29.95908,-90.07128,,New Orleans,Orleans Parish,Louisiana,Marker can be reached from Basin Street. ,,http://www.hmdb.org/m.asp?m=13699
19020,,Pioneer Park,Museum of West Louisiana,,1993,"Kansas City Southern Railway Company, Mayor and Members of the Leesville City Council, and Volunteers of the Museum of West Louisiana",31.13543,-93.2621,803 South 3rd Street,Leesville,Vernon Parish,Louisiana,"Marker is on South 3rd Street, on the right when traveling west. ",,http://www.hmdb.org/m.asp?m=19020
20025,,Confederate Mass Grave,,,,The Texas and Louisiana OCR Societies,30.41823,-92.09233,,Sunset,St. Landry Parish,Louisiana,"Marker is at the intersection of Napoleon Avenue (State Highway 182) and State Highway 754, on the left when traveling west on Napoleon Avenue. ",,http://www.hmdb.org/m.asp?m=20025
20027,,Academy of the Sacred Heart,,,,,30.42975,-92.03883,,Grand Coteau,St. Landry Parish,Louisiana,"Marker is on Academy Street, on the left when traveling east. ",,http://www.hmdb.org/m.asp?m=20027
20954,,Congo Square,,,,National Park Service,29.96101,-90.06839,901 N. Rampart Street,New Orleans,Orleans Parish,Louisiana,,,http://www.hmdb.org/m.asp?m=20954
20965,,Lafayette Square,Place Lafayette,,1985,France-Amérique de la Louisiane,29.94851,-90.07075,,New Orleans,Orleans Parish,Louisiana,"Marker is on St. Charles Avenue, on the left when traveling south. ",,http://www.hmdb.org/m.asp?m=20965
21068,,Louis “Satchmo” Armstrong,1901-1971,Louis Armstrong Park,2008,National Park Service/Tourism Cares,29.96226,-90.06794,901 N. Rampart St.,New Orleans,Orleans Parish,Louisiana,Marker can be reached from St. Ann Street west of N. Rampart Street when traveling north. ,,http://www.hmdb.org/m.asp?m=21068
21456,,The Old Mortuary Chapel,,,,Louisiana Tourist Commission,29.95829,-90.07042,,New Orleans,Orleans Parish,Louisiana,"Marker is at the intersection of North Rampart Street and Conti Street, in the median on North Rampart Street. ",,http://www.hmdb.org/m.asp?m=21456
21499,,Upper Pontabla Building,,Pontabla Buildings National Historic Landmark,1975,the Orleans Parrish Landmarks Commission and the National Park Service,29.95733,-90.06383,500 St. Peter Street,New Orleans,Orleans Parish,Louisiana,"Marker is on St. Peter Street south of Chartres Street, on the left when traveling north. ",,http://www.hmdb.org/m.asp?m=21499
21508,,The Cabildo,National Historic Landmark,Louisiana State Museum,1963,the Orleans Parish Landmarks Commission and the National Park Service,29.95754,-90.06384,701 Chartres Street,New Orleans,Orleans Parish,Louisiana,"Marker can be reached from the intersection of Chartres Street and St. Peter Street, on the left when traveling east. ",,http://www.hmdb.org/m.asp?m=21508
21548,,The French Opera House,,,,The Inn on Bourbon,29.95773,-90.06655,541 Bourbon Street,New Orleans,Orleans Parish,Louisiana,"Marker is at the intersection of Bourbon Street and Toulouse Street, on the right when traveling west on Bourbon Street. ",,http://www.hmdb.org/m.asp?m=21548
21552,,"Cathedral of St. Louis, King of France",,,1966,Orleans Parrish Landmarks Commission,29.95794,-90.06345,615 Pere Antoine Alley,New Orleans,Orleans Parish,Louisiana,"Marker is on Place John Paul II (Chartres Street), on the left when traveling north. ",,http://www.hmdb.org/m.asp?m=21552
21557,,Molly Marine,10-Nov-43,"""Free a Marine to Fight""",1943,City of New Orleans,29.95591,-90.07359,,New Orleans,Orleans Parish,Louisiana,"Marker is at the intersection of Elk Place and Canal Street, in the median on Elk Place. ",,http://www.hmdb.org/m.asp?m=21557
21841,,French Market,,,1991,French Market Corporation,29.95969,-90.05959,1008 N. Peters Street,New Orleans,Orleans Parish,Louisiana,"Marker is on Ursulines Avenue east of N. Peters Street, on the right when traveling west. ",,http://www.hmdb.org/m.asp?m=21841
21859,,Jackson Square - Vieux Carré,National Historic Landmark,,,National Park Service,29.9577,-90.06339,,New Orleans,Orleans Parish,Louisiana,Marker is on Chartres Street (Place John Paul II) north of St. Paul Street. ,,http://www.hmdb.org/m.asp?m=21859
21987,,Sidney Joseph Bechet,1897-1959,,1997,Sidney Bechet Centennial Committee,29.96152,-90.06821,,New Orleans,Orleans Parish,Louisiana,Marker can be reached from North Rampart Street. ,,http://www.hmdb.org/m.asp?m=21987
22776,,Fort Pike,,,1954,Louisiana Department of Commerce and Industry,30.16682,-89.7373,,New Orleans,Orleans Parish,Louisiana,Marker can be reached from U.S. 90. <font color=red> Reported permanently removed.</font>,Confirmed Missing,http://www.hmdb.org/m.asp?m=22776
23649,,Autrey House,,,,,32.70087,-92.67539,8296 LA 151,Dubach,Lincoln Parish,Louisiana,"Marker is at the intersection of State Highway 151 and State Highway 152, on the right when traveling west on State Highway 151. ",,http://www.hmdb.org/m.asp?m=23649
23885,,Bienville Monument,Bienville Place,,1955,Louisiana Purchase Sesquicentennial Commission,29.95444,-90.06473,,New Orleans,Orleans Parish,Louisiana,"Marker can be reached from Decatur Street north of Conti Street, on the left when traveling south. ",,http://www.hmdb.org/m.asp?m=23885
24684,,The Washington Artillery Park,,American Revolution Bicentennial: 1776-1976,1976,Battalion Washington Artillery,29.95698,-90.06221,700 Decatur Street,New Orleans,Orleans Parish,Louisiana,"Marker is on Decatur Street east of St. Peter Street, on the right when traveling east. ",,http://www.hmdb.org/m.asp?m=24684
26137,,St. Alphonsus Church,,,,"Donated by the Dr. Paul O. Villien, Sr. Family",30.10742,-92.12517,8700 Maurice Avenue,Maurice,Vermilion Parish,Louisiana,"Marker is on Maurice Avenue (U.S. 167), on the right when traveling south. ",,http://www.hmdb.org/m.asp?m=26137
26140,,Saint Mary Magdalen Church,,,,,29.97453,-92.13797,300 Pere Megret Street,Abbeville,Vermilion Parish,Louisiana,"Marker is on Pere Megret Street (State Highway 14) near Washington Street, on the right when traveling west. ",,http://www.hmdb.org/m.asp?m=26140
28113,,United States Customhouse,,,1974,,29.9517,-90.06649,423 Canal Street,New Orleans,Orleans Parish,Louisiana,"Marker is at the intersection of Canal Street and Decatur/Magazine Street, on the right when traveling west on Canal Street. ",,http://www.hmdb.org/m.asp?m=28113
30753,,El Camino Real,King's Highway,San Antonio Trace,1951,State of Louisiana and Daughters of the American Revolution,31.48884,-93.70615,15091 Texas Highway,Many,Sabine Parish,Louisiana,"Marker is on Texas Highway (State Highway 6), on the right when traveling east. ",,http://www.hmdb.org/m.asp?m=30753
34602,,Colfax Riot,,,1950,Louisiana Department of Commerce and Industry,31.51663,-92.71285,300 Main St,Colfax,Grant Parish,Louisiana,Marker is at the intersection of Main Street (State Highway 8) and 2nd Street (State Route 8) on Main Street. <font color=red> Reported permanently removed.</font>,Confirmed Missing,http://www.hmdb.org/m.asp?m=34602
34742,,Battle of Liberty Place Monument,"""September 14th 1874""",,1891,City of New Orleans,29.95122,-90.06377,,New Orleans,Orleans Parish,Louisiana,Memorial can be reached from Iberville Street north of Canal Street. <font color=red> Reported permanently removed.</font>,Confirmed Missing,http://www.hmdb.org/m.asp?m=34742
34798,,Battle of Milliken’s Bend,,,1962,Louisiana Civil War Centennial Commission,32.43828,-91.12327,,Tallulah,Madison Parish,Louisiana,"Marker is at the intersection of Thomastown Road and Ashley Plantation Road, on the left when traveling north on Thomastown Road. <font color=red> Reported missing.</font>",Confirmed Missing,http://www.hmdb.org/m.asp?m=34798
34846,,Lower Pontalba Building,,Pontalba Buildings National Historic Landmark,,Orleans Parish Landmarks Commission,29.95827,-90.06299,523 St. Ann Street,New Orleans,Orleans Parish,Louisiana,"Marker is at the intersection of Chartres Street and St. Ann St., on the right when traveling west on Chartres Street. ",,http://www.hmdb.org/m.asp?m=34846
35056,,"Saint Augustine Church, New Orleans",,Louisiana African American Heritage Trail,,Archdiocesan Bicentennial Commission,29.96511,-90.06606,1210 Governor Nicholls Street,New Orleans,Orleans Parish,Louisiana,"Marker is on St. Claude Avenue south of Governor Nicholls Street, on the left when traveling east. ",,http://www.hmdb.org/m.asp?m=35056
35067,,Tomb of the Unknown Slave,,"St. Augustine Catholic Church, New Orleans",2004,The Faith Community of St. Augustine Catholic Church,29.96532,-90.06618,1210 Governor Nicholls Street,New Orleans,Orleans Parish,Louisiana,Marker is on Governor Nicholls Street north of St. Claude Avenue.. ,,http://www.hmdb.org/m.asp?m=35067
35091,,Fort Jackson,,,1963,Louisiana Department of Commerce and Industry,29.35235,-89.45703,,Buras-Triumph,Plaquemines Parish,Louisiana,"Marker is at the intersection of Louisiana Route 23 and Herbert Harvey Road, in the median on State Route 23. ",,http://www.hmdb.org/m.asp?m=35091
35124,,Faubourg Tremé,,,,Historic Tremé Cultural Alliance.,29.96922,-90.06838,,New Orleans,Orleans Parish,Louisiana,"Marker is at the intersection of Esplanade Avenue and No. Claiborne Avenue, in the median on Esplanade Avenue. ",,http://www.hmdb.org/m.asp?m=35124
37973,,England Air Force Base History,,,,,31.32583,-92.53,,Alexandria,Rapides Parish,Louisiana,"Memorial is on England Drive, on the left when traveling east. ",,http://www.hmdb.org/m.asp?m=37973
38287,,Post-Civil War Alexandria,,,,City of Alexandria,31.31102,-92.4442,,Alexandria,Rapides Parish,Louisiana,"Marker is on 3rd Street north of Johnston Street, on the left when traveling south. ",,http://www.hmdb.org/m.asp?m=38287
38288,,Kent Plantation House,,,,"In Memory of Mrs. Robert H. Bolton, President, 1968-70, Chairman, 1970-72.",31.30407,-92.48275,3601 Bayou Rapides Road,Alexandria,Rapides Parish,Louisiana,"Marker is on Bayou Rapides Road (State Highway 496) west of North MacArthur Drive (U.S. 71), on the left when traveling west. ",,http://www.hmdb.org/m.asp?m=38288
38290,,Alexandria,,,1988,City of Alexandria,31.31113,-92.44436,,Alexandria,Rapides Parish,Louisiana,"Marker is on 3rd Street north of Johnston Street, on the left when traveling south. ",,http://www.hmdb.org/m.asp?m=38290
38291,,Thomas Courtland Manning,1825-1887,,,,31.3112,-92.44446,,Alexandria,Rapides Parish,Louisiana,"Marker is on 3rd Street south of Murray Street, on the left when traveling south. ",,http://www.hmdb.org/m.asp?m=38291
38292,,Alexandria Library,,,1990,Sponsored by Dorothy Tudor McWhorter,31.30912,-92.44476,503 Washington Street,Alexandria,Rapides Parish,Louisiana,"Marker is at the intersection of Washington Street and 5th Street, on the right when traveling north on Washington Street. ",,http://www.hmdb.org/m.asp?m=38292
38294,,Alexandria's Oldest Hospital,,,,Rapides Regional Medical Center,31.31429,-92.44981,,Alexandria,Rapides Parish,Louisiana,"Marker is at the intersection of Medical Center Drive and 4th Street, on the left when traveling north on Medical Center Drive. ",,http://www.hmdb.org/m.asp?m=38294
38319,,Commercial Building,Built c. 1915,,,,31.31086,-92.44401,201 Johnston Street,Alexandria,Rapides Parish,Louisiana,"Marker is at the intersection of 3rd Street and Johnston Street, on the left when traveling east on 3rd Street. ",,http://www.hmdb.org/m.asp?m=38319
38320,,Emmanuel Baptist Church,,,1992,Robert H. Bolton,31.31162,-92.44697,430 Jackson Street,Alexandria,Rapides Parish,Louisiana,"Marker is on Jackson Street west of 4th Street, on the right when traveling west. ",,http://www.hmdb.org/m.asp?m=38320
38321,,Louisiana Maneuvers,,,,Johnson Brown Post 1736 - Veterans of Foreign Wars,31.31213,-92.44508,,Alexandria,Rapides Parish,Louisiana,"Marker is on DeSoto Street north of 3rd Street, on the left when traveling north. ",,http://www.hmdb.org/m.asp?m=38321
38323,,The Hotel Bentley,,,,Sponsor: Dorothy Tudor McWhorter,31.3121,-92.44558,,Alexandria,Rapides Parish,Louisiana,"Marker is on 3rd Street west of DeSoto Street, on the right when traveling west. ",,http://www.hmdb.org/m.asp?m=38323
38324,,Old Rapides Bank Building,,,1987,Central Cities Development Corporation,31.31196,-92.44411,,Alexandria,Rapides Parish,Louisiana,"Marker is at the intersection of Main Street and Murray Street, on the right when traveling west on Main Street. ",,http://www.hmdb.org/m.asp?m=38324
38325,,Rapides Parish Governors,,,,"City of Alexandria, Louisiana",31.31177,-92.44416,,Alexandria,Rapides Parish,Louisiana,"Marker is at the intersection of Main Street and Murray Street, on the left when traveling west on Main Street. ",,http://www.hmdb.org/m.asp?m=38325
38326,,Red River,,,,Red River Waterway Commission,31.31241,-92.44374,,Alexandria,Rapides Parish,Louisiana,"Marker can be reached from Murray Street north of Main Street, on the left when traveling north. ",,http://www.hmdb.org/m.asp?m=38326
38327,,St. Francis Xavier Cathedral Complex,,,1988,Central Cities Development Corporation,31.31275,-92.44789,626 Fourth Street,Alexandria,Rapides Parish,Louisiana,"Marker is on 4th Street west of Elliott Street, on the right when traveling west. ",,http://www.hmdb.org/m.asp?m=38327
38328,,The Guaranty Eagles,,,,,31.31094,-92.44534,,Alexandria,Rapides Parish,Louisiana,"Marker is at the intersection of Murray Street and 4th Street, on the right when traveling south on Murray Street. ",,http://www.hmdb.org/m.asp?m=38328
38329,,The Jewish Cemetery,,,,Jewish Welfare Federation of Central Louisiana,31.31653,-92.43986,,Pineville,Rapides Parish,Louisiana,"Marker is on Main Street (U.S. 165) north of Hardtner Street, on the left when traveling north. ",,http://www.hmdb.org/m.asp?m=38329
38330,,National Hotel,Circa 1907,,,,31.14255,-93.26122,,Leesville,Vernon Parish,Louisiana,"Marker is at the intersection of 3rd Street and East Courthouse Street, on the left when traveling north on 3rd Street. ",,http://www.hmdb.org/m.asp?m=38330
38331,,First National Bank,Circa 1907,,,,31.14207,-93.26118,,Leesville,Vernon Parish,Louisiana,"Marker is at the intersection of 3rd Street and East Lula Street, on the left when traveling north on 3rd Street. ",,http://www.hmdb.org/m.asp?m=38331
38332,,Dreamland Theatre,Circa 1915,,,,31.14374,-93.26125,,Leesville,Vernon Parish,Louisiana,"Marker is on 3rd Street north of East Texas Street, on the left when traveling north. ",,http://www.hmdb.org/m.asp?m=38332
38333,,Great Louisiana Maneuvers,,,2004,The Vernon Parish Tourism Commission and the Vernon Parish Police Jury,31.14239,-93.26091,,Leesville,Vernon Parish,Louisiana,"Marker is on 3rd Street north of East Lula Street, on the right when traveling north. ",,http://www.hmdb.org/m.asp?m=38333
38334,,Kansas City Southern Railroad Depot,,,,Leesville Downtown Historic Commission,31.13624,-93.26184,,Leesville,Vernon Parish,Louisiana,"Marker is at the intersection of 3rd Street and East Fertitta Boulevard, on the right when traveling north on 3rd Street. ",,http://www.hmdb.org/m.asp?m=38334
38335,,Merchants & Farmers Bank,Circa 1928,,,,31.14274,-93.26121,,Leesville,Vernon Parish,Louisiana,"Marker is on 3rd Street near East Courthouse Street, on the left when traveling north. ",,http://www.hmdb.org/m.asp?m=38335
38336,,Nichols-Howerton Building,,,,,31.14305,-93.26108,,Leesville,Vernon Parish,Louisiana,"Marker is on 3rd Street north of East Courthouse Street, on the right when traveling north. ",,http://www.hmdb.org/m.asp?m=38336
38337,,The Leesville Hotel,Circa 1907,,,,31.14349,-93.2611,,Leesville,Vernon Parish,Louisiana,"Marker is on 3rd Street north of East Texas Street, on the right when traveling north. ",,http://www.hmdb.org/m.asp?m=38337
38338,,The Lyons Building,Circa 1907,,,,31.14274,-93.26106,,Leesville,Vernon Parish,Louisiana,"Marker is on 3rd Street north of East Courthouse Street, on the right when traveling north. ",,http://www.hmdb.org/m.asp?m=38338
38340,,The Nona Mills Lumber Company,,,2002,CLECO and the Vernon Parish Tourism Commission,31.14596,-93.25949,,Leesville,Vernon Parish,Louisiana,"Marker is at the intersection of Mechanic Street and North 1st Street, on the left when traveling east on Mechanic Street. ",,http://www.hmdb.org/m.asp?m=38340
38343,,The Red Hound Bar,Circa 1917,,,,31.1436,-93.26126,,Leesville,Vernon Parish,Louisiana,"Marker is on 3rd Street north of East Texas Street, on the left when traveling north. ",,http://www.hmdb.org/m.asp?m=38343
38344,,The Vernon Bank,,,,,31.14326,-93.26122,,Leesville,Vernon Parish,Louisiana,"Marker is at the intersection of 3rd Street and East Texas Street, on the left when traveling north on 3rd Street. ",,http://www.hmdb.org/m.asp?m=38344
38345,,Vernon Parish Courthouse,Circa 1910,,,,31.14231,-93.26089,,Leesville,Vernon Parish,Louisiana,"Marker can be reached from 3rd Street north of East Lula Street, on the right when traveling north. ",,http://www.hmdb.org/m.asp?m=38345
38346,,Vernon Parish Founders,,,2001,Vernon Parish Tourism Commission and the Vernon Parish Police Jury,31.14226,-93.2609,,Leesville,Vernon Parish,Louisiana,"Marker is on 3rd Street north of East Lula Street, on the right when traveling north. ",,http://www.hmdb.org/m.asp?m=38346
38347,,Vernon Parish Veterans' Memorial,,,,,31.14212,-93.26096,,Leesville,Vernon Parish,Louisiana,"Marker is at the intersection of 3rd Street and East Lula Street, on the right when traveling north on 3rd Street. ",,http://www.hmdb.org/m.asp?m=38347
38357,,5th Infantry Division (Mechanized),Operation Just Cause (Dec. 1989),,,American Legion Droddy Cain Post 145 & Veterans of Foreign Wars Old Stage Post 3106,31.04813,-93.21319,,Fort Polk,Vernon Parish,Louisiana,"Marker can be reached from Louisiana Avenue east of Colorado Avenue, on the right when traveling east. ",,http://www.hmdb.org/m.asp?m=38357
38359,,Second Brigade Soldiers,,,,,31.04814,-93.21313,,Fort Polk,Vernon Parish,Louisiana,"Marker can be reached from Louisiana Avenue east of Colorado Avenue, on the right when traveling east. ",,http://www.hmdb.org/m.asp?m=38359
38360,,The Seventh Armored Division,From the beaches to the Baltic,,1981,Seventh Armored Division Association,31.04164,-93.21236,,Fort Polk,Vernon Parish,Louisiana,"Marker is on South Carolina Avenue north of Bell Richard Avenue, on the right when traveling north. ",,http://www.hmdb.org/m.asp?m=38360
38361,,5th Infantry Division (Mechanized),Memorial Park,,,,31.04863,-93.21294,,Fort Polk,Vernon Parish,Louisiana,"Marker can be reached from Louisiana Avenue east of Colorado Avenue, on the right when traveling east. ",,http://www.hmdb.org/m.asp?m=38361
38362,,Global War on Terrorism Monument,,,,,31.04859,-93.21301,,Fort Polk,Vernon Parish,Louisiana,"Memorial can be reached from Louisiana Avenue east of Colorado Avenue, on the right when traveling east. ",,http://www.hmdb.org/m.asp?m=38362
38363,,Camp Polk Heritage Families,,,,,31.04797,-93.21309,,Fort Polk,Vernon Parish,Louisiana,"Marker can be reached from Louisiana Avenue east of Colorado Avenue, on the right when traveling east. ",,http://www.hmdb.org/m.asp?m=38363
38364,,Peason Ridge Heritage Families,,,,,31.04798,-93.21314,,Fort Polk,Vernon Parish,Louisiana,"Marker can be reached from Louisiana Avenue east of Colorado Avenue, on the right when traveling east. ",,http://www.hmdb.org/m.asp?m=38364
38365,,2nd Armored Cavalry Regiment,,,2005,"Brigadier General Michael D. Barbero, Commander, Fort Polk and the JRTC",31.04864,-93.21305,,Fort Polk,Vernon Parish,Louisiana,"Marker can be reached from Louisiana Avenue east of Colorado Avenue, on the right when traveling east. ",,http://www.hmdb.org/m.asp?m=38365
38366,,Fort Polk,,,1990,Leesville-Vernon Chamber of Commerce,31.04849,-93.21274,,Fort Polk,Vernon Parish,Louisiana,"Marker can be reached from Louisiana Avenue east of Colorado Avenue, on the right when traveling east. ",,http://www.hmdb.org/m.asp?m=38366
38368,,The Red River Campaign,March 1864,,,,31.32108,-92.44955,135 Riverfront Street,Pineville,Rapides Parish,Louisiana,"Marker is on Riverfront Street west of Main Street, on the left when traveling west. ",,http://www.hmdb.org/m.asp?m=38368
38532,,Bailey's Dam,,,,,31.32108,-92.44955,135 Riverfront Street,Pineville,Rapides Parish,Louisiana,"Marker is on Riverfront Street west of Main Street, on the left when traveling west. ",,http://www.hmdb.org/m.asp?m=38532
38534,,The Dam Works,,,,,31.32108,-92.44955,135 Riverfront Street,Pineville,Rapides Parish,Louisiana,"Marker is on Riverfront Street west of Main Street, on the left when traveling west. ",,http://www.hmdb.org/m.asp?m=38534
38640,,Margaret's Place and Walk / Lower Garden District,,,,,29.94071,-90.07216,1133 Prytania Street,New Orleans,Orleans Parish,Louisiana,"Marker is at the intersection of Prytania Street and Clio St., on the left when traveling south on Prytania Street. ",,http://www.hmdb.org/m.asp?m=38640
38901,,8 in. Columbaid Cannon,,,,Survivors of the Battallion Washington Artillery,29.94345,-90.07125,929 Camp Street,New Orleans,Orleans Parish,Louisiana,"Marker is on Camp Street, 0 miles Andrew Higgins Drive, on the right when traveling south. ",,http://www.hmdb.org/m.asp?m=38901
40487,,Touro Infirmary,1852,,2010,"Jewish American Society for Historic Preservation, Touro Infirmary, City of New Orleans",29.94113,-90.06449,1174 Convention Center Boulevard,New Orleans,Orleans Parish,Louisiana,"Marker is on Convention Center Boulevard near John Churchill Chase Street, in the median. ",,http://www.hmdb.org/m.asp?m=40487
41111,,Gálvez Monument,,,1977,Government of Spain,29.94975,-90.06364,2 Canal Steet,New Orleans,Orleans Parish,Louisiana,Marker can be reached from Canal Street east of Royal Street when traveling south. ,,http://www.hmdb.org/m.asp?m=41111
42679,,English Turn,,,1963,Department of Commerce and Industry,29.87803,-89.96415,,Braithwaite,Plaquemines Parish,Louisiana,"Marker is on English Turn Road (Parish Route 3137) 1 mile west of Parish Route 39, on the right when traveling west. ",,http://www.hmdb.org/m.asp?m=42679
42681,,Plaquemines Parish,,,,Plaquemines Parish Government,29.34763,-89.46428,38039 LA-23,Buras,Plaquemines Parish,Louisiana,"Marker is on Parish Road 11, on the right when traveling south. ",,http://www.hmdb.org/m.asp?m=42681
43075,,Civil War Battle of Baton Rouge,1862,,,,30.45097,-91.1711,,Baton Rouge,East Baton Rouge Parish,Louisiana,"Marker is at the intersection of Laurel Street and North 17th Street, on the right when traveling west on Laurel Street. ",,http://www.hmdb.org/m.asp?m=43075
46064,,London Avenue Canal Floodwall Breach,,,2011,Levees.Org,30.00759,-90.06864,4902 Warrington Drive,New Orleans,Orleans Parish,Louisiana,"Marker is at the intersection of Warrington Drive and Maribeau Ave., in the median on Warrington Drive. ",,http://www.hmdb.org/m.asp?m=46064
49059,,Bayou Vermilion,,,,Lafayette Parish Bayou Vermilion District,30.19478,-92.01614,,Lafayette,Lafayette Parish,Louisiana,"Marker is at the intersection of West Pinhook Road and La Rue France, on the right when traveling north on West Pinhook Road. ",,http://www.hmdb.org/m.asp?m=49059
49062,,Cathedral-Carmel School,,,2000,Parent Booster Association,30.22373,-92.02285,,Lafayette,Lafayette Parish,Louisiana,"Marker is on St. John Street, on the right when traveling south. ",,http://www.hmdb.org/m.asp?m=49062
49063,,General Alfred Mouton,,,1982,Department of Culture Recreation and Tourism,30.2213,-92.02437,,Lafayette,Lafayette Parish,Louisiana,"Marker is on University Avenue near Azalea Street, on the right when traveling south. ",,http://www.hmdb.org/m.asp?m=49063
49064,,La Place des Créoles,Lifting Up The Créole Community,,1991,,30.23225,-92.02108,,Lafayette,Lafayette Parish,Louisiana,"Marker is on Cameron Drive (US 90) near Lafayette Street, on the right when traveling east. ",,http://www.hmdb.org/m.asp?m=49064
49066,,Mt. Carmel Academy,,,,Students of Mount Carmel and Attakapas Historical Association,30.00656,-91.81618,,New Iberia,Iberia Parish,Louisiana,"Marker is on Bridge Street, on the right when traveling west. ",,http://www.hmdb.org/m.asp?m=49066
49067,,Mulate's,,,,,30.27781,-91.91534,325 W Mills Ave.,Breaux Bridge,St. Martin Parish,Louisiana,"Marker is on West Mills Avenue (State Highway 94) 0.3 miles west of Main Highway (State Highway 31), on the left when traveling west. ",,http://www.hmdb.org/m.asp?m=49067
49293,,The Cathedral of Saint John the Evangelist,,,1975,The Department of Commerce and Industry,30.2232,-92.02293,,Lafayette,Lafayette Parish,Louisiana,"Marker is on St. John Street, on the left when traveling north. ",,http://www.hmdb.org/m.asp?m=49293
49294,,St. Cecilia School,,,1983,"Malone and Hyde, Inc.",30.14849,-91.96617,,Broussard,Lafayette Parish,Louisiana,"Marker is on West Main Street, on the right when traveling west. ",,http://www.hmdb.org/m.asp?m=49294
49683,,Church of the Incarnation,Protestant Episcopal,,1974,Louisiana Tourist Development Commission,30.72968,-90.5076,111 East Olive Street,Amite City,Tangipahoa Parish,Louisiana,Marker is on Olive Street. ,,http://www.hmdb.org/m.asp?m=49683
49692,,Blythewood Plantation,,,,The Kennedy Family,30.73112,-90.49897,400 Daniel Street,Amite City,Tangipahoa Parish,Louisiana,"Marker is on Daniel Street, on the right when traveling north. ",,http://www.hmdb.org/m.asp?m=49692
49772,,Hammond Junior College,,,,,30.50228,-90.46407,,Hammond,Tangipahoa Parish,Louisiana,"Marker is at the intersection of West Morris Avenue (U.S. 190) and South Pine Street, on the right when traveling east on West Morris Avenue. ",,http://www.hmdb.org/m.asp?m=49772
49774,,Peter Hammond,1798 - 1870,,1980,Louisiana Department of Commerce and Industry,30.50615,-90.4562,,Hammond,Tangipahoa Parish,Louisiana,"Marker is on East Charles Street, on the right when traveling east. ",,http://www.hmdb.org/m.asp?m=49774
49776,,Mt. Vernon Walnut,,,1957,Department of Commerce and Industry State of Louisiana,30.50483,-90.46192,,Hammond,Tangipahoa Parish,Louisiana,"Marker is at the intersection of Northwest Railroad Avenue and West Charlest Street, on the left when traveling north on Northwest Railroad Avenue. ",,http://www.hmdb.org/m.asp?m=49776
49797,,Tangipahoa,,,1982,"Department of Culture, Recreation, & Tourism",30.87303,-90.5115,,Tangipahoa,Tangipahoa Parish,Louisiana,"Marker is on U.S. 51, on the right when traveling north. ",,http://www.hmdb.org/m.asp?m=49797
49798,,Camp Moore,,,1959,Louisiana Department of Commerce and Industry,30.88438,-90.51185,,Tangipahoa,Tangipahoa Parish,Louisiana,"Marker is on U.S. 51, on the right when traveling north. ",,http://www.hmdb.org/m.asp?m=49798
50379,,Loranger High School,,,,,30.63888,-90.39833,,Loranger,Tangipahoa Parish,Louisiana,"Marker is on State Highway 1062, on the left when traveling north. ",,http://www.hmdb.org/m.asp?m=50379
51288,,Woldenberg Riverfront Park,Malcolm Woldenberg 1896-1982,,,,29.95682,-90.06244,700 Decatur Street,New Orleans,Orleans Parish,Louisiana,Marker can be reached from Decatur Street. ,,http://www.hmdb.org/m.asp?m=51288
51291,,The Dufour-Baldwin House,,,,Division of Archaeology and Historic Preservation,29.9703,-90.06957,1701 Esplanade Avenue,New Orleans,Orleans Parish,Louisiana,Marker is on Esplanade Avenue. ,,http://www.hmdb.org/m.asp?m=51291
51292,,Edgar Germain Hilaire Degas,,,,Division of Archaeology and Historic Preservation,29.97365,-90.0751,2306 Esplanade Avenue,New Orleans,Orleans Parish,Louisiana,Marker is on Esplanade Avenue. ,,http://www.hmdb.org/m.asp?m=51292
51293,,The Croatian Benevolent Association of Louisiana,,,1993,The Croatian Benevolent Association of Louisiana,29.98292,-90.08777,3421 Esplanade Avenue,New Orleans,Orleans Parish,Louisiana,Marker can be reached from Esplanade Avenue. ,,http://www.hmdb.org/m.asp?m=51293
51294,,In Memory of All American Veterans,,,,,29.98283,-90.08774,3421 Esplanade Avenue,New Orleans,Orleans Parish,Louisiana,Marker is on Esplanade Avenue. ,,http://www.hmdb.org/m.asp?m=51294
51296,,Duelling Grounds,,,,,29.98716,-90.09458,,New Orleans,Orleans Parish,Louisiana,Marker is on Victory Avenue. ,,http://www.hmdb.org/m.asp?m=51296
51297,,Old Ursuline Convent,1749-1753,,1995,"Louisiana Society, National Society Colonial Dames XVII Century",29.9607,-90.06069,1112 Chartres Street,New Orleans,Orleans Parish,Louisiana,Marker is on Chartres Street near Ursuline Street. ,,http://www.hmdb.org/m.asp?m=51297
51313,,Archbishop Antoine Blanc Memorial,,,1981,International Order of Alhambra Darro Caravan No. 29,29.96085,-90.06056,1112 Chartres Street,New Orleans,Orleans Parish,Louisiana,Marker is at the intersection of Chartres Street and Ursuline Street on Chartres Street. ,,http://www.hmdb.org/m.asp?m=51313
51314,,Le – Carpentier/Beauregard House,,,,New Orleans Landmarks Commission,29.96098,-90.06094,1113Chartres Street,New Orleans,Orleans Parish,Louisiana,Marker is on Chartres Street. ,,http://www.hmdb.org/m.asp?m=51314
51315,,Bringier – Barnett House,,,1969,New Orleans Landmarks Commission,29.96269,-90.0594,606 Esplanade,New Orleans,Orleans Parish,Louisiana,Marker is on Esplanade Avenue. ,,http://www.hmdb.org/m.asp?m=51315
51316,,Gauche House,,,1973,New Orleans Landmarks Commission,29.96311,-90.06049,1315 Royal Street,New Orleans,Orleans Parish,Louisiana,Marker is on Royal Street. ,,http://www.hmdb.org/m.asp?m=51316
51317,,Dominique Bouligny House,,,1997,New Orleans Landmarks Commission,29.96248,-90.06099,1217 Royal Street,New Orleans,Orleans Parish,Louisiana,Marker is on Royal Street. ,,http://www.hmdb.org/m.asp?m=51317
51318,,Gallier House,,,1969,New Orleans Landmarks Commission,29.96166,-90.06122,1132 Royal Street,New Orleans,Orleans Parish,Louisiana,Marker is on Royal Street. ,,http://www.hmdb.org/m.asp?m=51318
51319,,Residence of Don Manuel Lanzos,Captain of the Spanish Army,Madam John’s Legacy,1976,New Orleans Landmarks Commission,29.95921,-90.06303,628 Dumaine Street,New Orleans,Orleans Parish,Louisiana,Marker is on Dumaine Street. ,,http://www.hmdb.org/m.asp?m=51319
51320,,Thomas Poree House,,,1995,New Orleans Landmarks Commission,29.95929,-90.06333,842 Royal Street,New Orleans,Orleans Parish,Louisiana,Marker is at the intersection of Royal Street and Dumaine Street on Royal Street. ,,http://www.hmdb.org/m.asp?m=51320
51321,,Site of First Louisiana School,1725,,1961,New Orleans Landmarks Commission,29.95873,-90.06345,625 St. Ann Street,New Orleans,Orleans Parish,Louisiana,Marker is on St. Ann Street. ,,http://www.hmdb.org/m.asp?m=51321
51323,,Pedesclaux-Lemonnier House,,,1986,New Orleans Landmarks Commission,29.95778,-90.06472,640 Royal Street,New Orleans,Orleans Parish,Louisiana,Marker is at the intersection of Royal Street and St. Peter Street on Royal Street. ,,http://www.hmdb.org/m.asp?m=51323
51331,,Merieult House,,,1974,New Orleans Landmarks Commission,29.95705,-90.06586,533 Royal Street,New Orleans,Orleans Parish,Louisiana,Marker is on Royal Street. ,,http://www.hmdb.org/m.asp?m=51331
51332,,Boimaré-Macarty House,,,1988,New Orleans Landmarks Commission,29.95676,-90.06616,509 Royal Street,New Orleans,Orleans Parish,Louisiana,Marker is on Royal Street. ,,http://www.hmdb.org/m.asp?m=51332
51333,,Judge Fred J. Cassibry Square,,,,,29.9562,-90.06614,440 Royal Street,New Orleans,Orleans Parish,Louisiana,Marker is at the intersection of Royal Street and St. Louis Street on Royal Street. ,,http://www.hmdb.org/m.asp?m=51333
51334,,Tortorici’s,,,,,29.95642,-90.06644,441 Royal Street,New Orleans,Orleans Parish,Louisiana,Marker is at the intersection of Royal Street and St. Louis Street on Royal Street. ,,http://www.hmdb.org/m.asp?m=51334
51335,,Rillieux – Waldhorn House,,,,,29.95566,-90.0671,343 Royal Street,New Orleans,Orleans Parish,Louisiana,Marker is at the intersection of Royal Street and Conti Street on Royal Street. ,,http://www.hmdb.org/m.asp?m=51335
51337,,Conway’s Court,,,,,29.95466,-90.06753,240 Royal Street,New Orleans,Orleans Parish,Louisiana,Marker is on Royal Street near Bienville Street. ,,http://www.hmdb.org/m.asp?m=51337
51355,,These Three Townhouses,,,,,29.95642,-90.06921,311 Dauphine Street,New Orleans,Orleans Parish,Louisiana,Marker is on Dauphine Street. ,,http://www.hmdb.org/m.asp?m=51355
51356,,Audubon Room,,,,,29.95702,-90.06835,402 Dauphine Street,New Orleans,Orleans Parish,Louisiana,Marker is at the intersection of Dauphine Street and Conti Street on Dauphine Street. ,,http://www.hmdb.org/m.asp?m=51356
51357,,The Xiques House,,,2011,New Orleans Landmarks Commission,29.95819,-90.06777,523 Dauphine Street,New Orleans,Orleans Parish,Louisiana,Marker is on Dauphine Street. ,,http://www.hmdb.org/m.asp?m=51357
51359,,Campanel Cottage,,,,New Orleans Landmarks Commission,29.95863,-90.06727,901 Toulouse Street,New Orleans,Orleans Parish,Louisiana,Marker is at the intersection of Toulouse Street and Dauphine Street on Toulouse Street. ,,http://www.hmdb.org/m.asp?m=51359
51360,,Maison Hospitalière,,,,,29.96345,-90.06251,1220 Dauphine Street,New Orleans,Orleans Parish,Louisiana,Marker is on Dauphine Street. ,,http://www.hmdb.org/m.asp?m=51360
51361,,Frances Benjamin Johnston House,,,1985,New Orleans Landmarks Commission,29.96224,-90.06219,1132 Bourbon Street,New Orleans,Orleans Parish,Louisiana,Marker is on Bourbon Street. ,,http://www.hmdb.org/m.asp?m=51361
51363,,Erard-Espy House,,,,,29.96135,-90.0635,1111 Bourbon Street,New Orleans,Orleans Parish,Louisiana,Marker is on Bourbon Street. ,,http://www.hmdb.org/m.asp?m=51363
51364,,Creole Cottage c. 1810,,,,,29.96002,-90.06474,825 Bourbon Street,New Orleans,Orleans Parish,Louisiana,Marker is on Bourbon Street. ,,http://www.hmdb.org/m.asp?m=51364
51365,,Plique – La Branche House,,,1959,New Orleans Landmarks Commission,29.95837,-90.0655,730 St. Peter Street,New Orleans,Orleans Parish,Louisiana,Marker is on St. Peter Street. ,,http://www.hmdb.org/m.asp?m=51365
51376,,Pat O’Brien’s,,,,,29.95817,-90.06532,720 St. Peter Street,New Orleans,Orleans Parish,Louisiana,"Marker is on St, Peter Street. ",,http://www.hmdb.org/m.asp?m=51376
51377,,My Bourbon Home,,,,New Orleans French Quarter Historical District,29.95834,-90.06616,623 Bourbon Street,New Orleans,Orleans Parish,Louisiana,Marker is on Bourbon Street. ,,http://www.hmdb.org/m.asp?m=51377
51378,,Hermann – Grima House,,,1973,New Orleans Landmarks Commission,29.95713,-90.06766,820 St. Louis Street,New Orleans,Orleans Parish,Louisiana,Marker is on St. Louis Street. ,,http://www.hmdb.org/m.asp?m=51378
51381,,Site of Kolly Townhouse,First Ursuline Convent and Charity Hospital,,,Archdiocese Bicentennial Commission,29.95564,-90.06846,301 Chartres Street,New Orleans,Orleans Parish,Louisiana,Marker is at the intersection of Chartres Street and Bienville Street on Chartres Street. ,,http://www.hmdb.org/m.asp?m=51381
51385,,Original Pierre Maspero’s Slave Exchange,Est. – 1788,,,,29.95691,-90.06708,438 Chartres Street,New Orleans,Orleans Parish,Louisiana,Marker is at the intersection of Chartres Street and Saint Louis Street on Chartres Street. ,,http://www.hmdb.org/m.asp?m=51385
51386,,Girod House,,,,New Orleans Landmarks Commission,29.95706,-90.06696,500 Chartres Street,New Orleans,Orleans Parish,Louisiana,Marker is at the intersection of Chartres Street and Saint Louis Street on Chartres Street. ,,http://www.hmdb.org/m.asp?m=51386
51387,,Nicholas Bertoli Building,,,1912,New Orleans Landmarks Commission,29.9572,-90.06683,508 Chartres Street,New Orleans,Orleans Parish,Louisiana,Marker is on Chartres Street. ,,http://www.hmdb.org/m.asp?m=51387
51412,,Bosque House,,,1957,New Orleans Landmarks Commission,29.95702,-90.06426,619 Chartres Street,New Orleans,Orleans Parish,Louisiana,"Marker is at the intersection of Chartres Street and Wilkinson Street, on the left when traveling north on Chartres Street. ",,http://www.hmdb.org/m.asp?m=51412
51413,,Victor David House,,,1988,New Orleans Landmarks Commission,29.95763,-90.06433,620 Saint Peter Street,New Orleans,Orleans Parish,Louisiana,Marker is on Saint Peter Street. ,,http://www.hmdb.org/m.asp?m=51413
51415,,LaBranche Buildings,,,1969,New Orleans Landmarks Commission,29.95802,-90.0644,627 Saint Peter Street,New Orleans,Orleans Parish,Louisiana,Marker is at the intersection of Saint Peter Street and Royal Street on Saint Peter Street. ,,http://www.hmdb.org/m.asp?m=51415
51416,,Avart-Peretti House,,,1986,New Orleans Landmarks Commission,29.95763,-90.06459,632 Saint Peter Street,New Orleans,Orleans Parish,Louisiana,Marker is on Saint Peter Street. ,,http://www.hmdb.org/m.asp?m=51416
51417,,Commagère – Mercier House,,,1978,New Orleans Landmarks Commission,29.95769,-90.06442,630 Saint Peter Street,New Orleans,Orleans Parish,Louisiana,Marker is on Saint Peter Street. ,,http://www.hmdb.org/m.asp?m=51417
51418,,Faulkner House,,,1978,New Orleans Landmarks Commission,29.95807,-90.06419,624 Pirate Alley,New Orleans,Orleans Parish,Louisiana,Marker is on Pirate Alley. ,,http://www.hmdb.org/m.asp?m=51418
51419,,Louis J. Dufilho,La Pharmacie Francaise,Max Samson,,American Institute of the History of Pharmacy,29.95609,-90.06495,514 Chartres Street,New Orleans,Orleans Parish,Louisiana,Marker is on Chartres Street. ,,http://www.hmdb.org/m.asp?m=51419
51420,,Thomas House,,,2003,New Orleans Landmarks Commission,29.9582,-90.06448,712 Royal Street,New Orleans,Orleans Parish,Louisiana,Marker is on Royal Street. ,,http://www.hmdb.org/m.asp?m=51420
51470,,U.S. Branch Bank,,,,,29.95423,-90.06666,301 Chartres Street,New Orleans,Orleans Parish,Louisiana,Marker is at the intersection of Chartres Street and Bienville Street on Chartres Street. ,,http://www.hmdb.org/m.asp?m=51470
51487,,Quartier General de la Garde Municipale,,,,,29.95797,-90.06403,616 Pirate Alley,New Orleans,Orleans Parish,Louisiana,Marker is on Pirate Alley. ,,http://www.hmdb.org/m.asp?m=51487
51489,,Former site of Holy Family Sisters’ Convent,,,,Archdiocesan Bicentennial Commission,29.95879,-90.06471,715 Orleans Street,New Orleans,Orleans Parish,Louisiana,Marker is on Orleans Street. ,,http://www.hmdb.org/m.asp?m=51489
51491,,DeDroit Residence,,,,New Orleans Jazz Commission,29.92293,-90.12431,735 Henry Clay Avenue,New Orleans,Orleans Parish,Louisiana,Marker is on Henry Clay Avenue near Magazine Street. ,,http://www.hmdb.org/m.asp?m=51491
51493,,Lafayette Cemetery No. 1,,,1970,New Orleans Landmarks Commission,29.92911,-90.08487,1420 Washington Avenue,New Orleans,Orleans Parish,Louisiana,Marker is on Washington Avenue. ,,http://www.hmdb.org/m.asp?m=51493
51495,,Maisonette Creole,,,,,29.92976,-90.08474,2726 Prytania Street,New Orleans,Orleans Parish,Louisiana,Marker is on Prytania Street. ,,http://www.hmdb.org/m.asp?m=51495
51497,,Colonel Short’s Villa,,,1978,New Orleans Landmarks Commission,29.92996,-90.08427,1448 Fourth Street,New Orleans,Orleans Parish,Louisiana,Marker is on Fourth Street near Prytania Street. ,,http://www.hmdb.org/m.asp?m=51497
51517,,Edward A. Davis House,,,,Women’s Guild of the New Orleans Opera Association,29.93087,-90.08268,2500 Prytania Street,New Orleans,Orleans Parish,Louisiana,Marker is at the intersection of Prytania Street and Second Street on Prytania Street. ,,http://www.hmdb.org/m.asp?m=51517
51518,,Adams – Jones House,,,1995,New Orleans Landmarks Commission,29.93151,-90.08236,2423 Prytania Street,New Orleans,Orleans Parish,Louisiana,Marker is on Prytania Street. ,,http://www.hmdb.org/m.asp?m=51518
51519,,Bradish Johnson House,Erected 1872,,,Orleans Parish Landmarks Commission,29.93184,-90.08178,2341 Pyrtania Street,New Orleans,Orleans Parish,Louisiana,Marker is on Prytania Street near First Street. ,,http://www.hmdb.org/m.asp?m=51519
51520,,The Manse,,,2001,New Orleans Landmarks Commission,29.93052,-90.08058,2328 Coliseum Street,New Orleans,Orleans Parish,Louisiana,Marker is on Coliseum Street. ,,http://www.hmdb.org/m.asp?m=51520
51521,,Jefferson Davis,,,1930,Ladies Confederate Memorial Association,29.92851,-90.07981,1134 First Street,New Orleans,Orleans Parish,Louisiana,Marker is at the intersection of First Street and Camp Street on First Street. ,,http://www.hmdb.org/m.asp?m=51521
51523,,Brevard-Rice House,Built in 1857 for Albert Hamilton Brevard,,1991,New Orleans Landmarks Commission,29.9297,-90.08023,1239 First Street,New Orleans,Orleans Parish,Louisiana,Marker is on First Street near Chestnut Street. ,,http://www.hmdb.org/m.asp?m=51523
51524,,Mayor Isaac W. Patton House,,,1985,New Orleans Landmarks Commission,29.93039,-90.08532,1527 Washington Avenue,New Orleans,Orleans Parish,Louisiana,Marker is on Washington Avenue. ,,http://www.hmdb.org/m.asp?m=51524
51525,,Birthplace of Danny Barker,13-Jan-09,,,,29.96049,-90.06146,1027 Chartres Street,New Orleans,Orleans Parish,Louisiana,Marker is on Chartres Street. ,,http://www.hmdb.org/m.asp?m=51525
51526,,Provincial Motel,(Site),,,,29.96025,-90.06105,1032 Chartres Street,New Orleans,Orleans Parish,Louisiana,Marker is on Chartres Street. ,,http://www.hmdb.org/m.asp?m=51526
51541,,De La Ronde House,,,,New Orleans Landmarks Commission,29.95956,-90.06219,1021 Chartres Street,New Orleans,Orleans Parish,Louisiana,Marker is on Chartres Street. ,,http://www.hmdb.org/m.asp?m=51541
51542,,Cucullu Row,,,,,29.95876,-90.06245,838 Chartres Street,New Orleans,Orleans Parish,Louisiana,Marker is at the intersection of Chartres Street and Dumaine Street on Chartres Street. ,,http://www.hmdb.org/m.asp?m=51542
51544,,The Presbytère,,,1964,New Orleans Landmarks Commission,29.95815,-90.06337,741 Chartres Street,New Orleans,Orleans Parish,Louisiana,Marker is at the intersection of Chartres Street and Saint Ann Street on Chartres Street. ,,http://www.hmdb.org/m.asp?m=51544
51546,,Literary Landmark,540 St. Peter,,1998,Friends of Libraries USA/Friends of the New Orleans Public Library,29.95724,-90.06373,540 Saint Peter Street,New Orleans,Orleans Parish,Louisiana,Marker is at the intersection of Saint Peter Street and Chartres Street on Saint Peter Street. ,,http://www.hmdb.org/m.asp?m=51546
51548,,Jean Adrien Delpit House,,,1993,New Orleans Landmarks Commission,29.95553,-90.06466,521 Saint Louis Street,New Orleans,Orleans Parish,Louisiana,Marker is on Saint Louis Street. ,,http://www.hmdb.org/m.asp?m=51548
51549,,Pierre Maspero’s Exchange,,,,,29.95574,-90.06523,540 Saint Peter Street,New Orleans,Orleans Parish,Louisiana,Marker is on Saint Peter Street near Chartres Street. ,,http://www.hmdb.org/m.asp?m=51549
51552,,Fort St. Charles,[Louisiana Rebellion of 1768],,1955,Louisiana Department of Commerce and Industry/Commission du Tourisme,29.96133,-90.05747,400 Esplanade Avenue,New Orleans,Orleans Parish,Louisiana,Marker is at the intersection of Esplanade Avenue and North Peters Street on Esplanade Avenue. ,,http://www.hmdb.org/m.asp?m=51552
51556,,The French Market,Rebuilt 1936-1938,,,,29.95899,-90.06071,,New Orleans,Orleans Parish,Louisiana,Marker is on Decatur Street near North Peters Street and Saint Philip Street. ,,http://www.hmdb.org/m.asp?m=51556
51591,,Bank of Louisiana in New Orleans,,,1992,Bank of Louisiana in New Orleans,29.95122,-90.06993,300 Saint Charles Avenue,New Orleans,Orleans Parish,Louisiana,Marker is at the intersection of Saint Charles Avenue and Gravier Street on Saint Charles Avenue. ,,http://www.hmdb.org/m.asp?m=51591
51592,,Site of the St. Charles Theaters,1835-1967,,,,29.94992,-90.0703,490 Saint Charles Avenue,New Orleans,Orleans Parish,Louisiana,Marker is at the intersection of Saint Charles Avenue and Poydras Street on Saint Charles Avenue. ,,http://www.hmdb.org/m.asp?m=51592
51593,,Robert E. Lee,1807 – 1870,,,,29.94333,-90.07245,900 Saint Charles Avenue,New Orleans,Orleans Parish,Louisiana,Marker is on Lee Circle near Howard Avenue. <font color=red> Reported permanently removed.</font>,Confirmed Missing,http://www.hmdb.org/m.asp?m=51593
51594,,St. Charles Line,,,,,29.94367,-90.0726,900 Saint Charles Avenue,New Orleans,Orleans Parish,Louisiana,Marker is at the intersection of Lee Circle and Howard Avenue on Lee Circle. ,,http://www.hmdb.org/m.asp?m=51594
51595,,Lambert-Gallier Inn of Court,"Lambert & Lambert, Attorneys at Law",,,,29.94759,-90.07137,635 Saint Charles Avenue,New Orleans,Orleans Parish,Louisiana,Marker is on Saint Charles Avenue. ,,http://www.hmdb.org/m.asp?m=51595
51598,,Edgar Degas House,,,,,29.9548,-90.067,307 Exchange Place,New Orleans,Orleans Parish,Louisiana,Marker is at the intersection of Exchange Place and Bienville Street on Exchange Place. ,,http://www.hmdb.org/m.asp?m=51598
51599,,Pecquet Building,,,1997,New Orleans Landmarks Commission,29.95665,-90.06609,505 Royal Street,New Orleans,Orleans Parish,Louisiana,Marker is on Royal Street. ,,http://www.hmdb.org/m.asp?m=51599
51600,,Fauboug Marigny,,,,Faubourg Marigny Improvement Association,29.9621,-90.05777,449 Esplanade Avenue,New Orleans,Orleans Parish,Louisiana,Marker is at the intersection of Esplanade Avenue and Frenchmen Street on Esplanade Avenue. ,,http://www.hmdb.org/m.asp?m=51600
51605,,Canal Street Historic District,,,,,29.9515,-90.06627,423 Canal Street,New Orleans,Orleans Parish,Louisiana,Marker is on Canal Street. ,,http://www.hmdb.org/m.asp?m=51605
51606,,Mule Barn,,,1999,River Road Historical Society,29.94618,-90.36375,13034 River Road,Destrehan,St. Charles Parish,Louisiana,Marker can be reached from River Road. ,,http://www.hmdb.org/m.asp?m=51606
51607,,Destrehan Manor House,,,,,29.94497,-90.36547,13034 River Road,Destrehan,St. Charles Parish,Louisiana,Marker is on River Road (State Highway 48). ,,http://www.hmdb.org/m.asp?m=51607
51632,,Hovey Cuts A Road,,,1962,Louisiana Civil War Centennial Commission,32.18045,-91.23318,,Newellton,Tensas Parish,Louisiana,"Marker is at the intersection of U.S. 65 and State Highway 898, on the right when traveling south on U.S. 65. ",,http://www.hmdb.org/m.asp?m=51632
51633,,Balmoral Mounds,Ancient Mounds Trail,,,,32.13195,-91.24067,,Newellton,Tensas Parish,Louisiana,"Marker is at the intersection of U.S. 65 and Garden Road (State Highway 888), on the right when traveling north on U.S. 65. ",,http://www.hmdb.org/m.asp?m=51633
51634,,Franklin Parish,,,1976,Franklin Parish Bicentennial Commission,32.16542,-91.71375,,Winnsboro,Franklin Parish,Louisiana,"Marker is at the intersection of Main Street (State Highway 4) and Pine Street (State Highway 865), on the right when traveling west on Main Street. ",,http://www.hmdb.org/m.asp?m=51634
51640,,"""Oven"" Vaults",,,1977,New Orleans Archdiocesan Cemeteries,29.95916,-90.0711,429 Basin Street,New Orleans,Orleans Parish,Louisiana,Marker can be reached from Basin Street. ,,http://www.hmdb.org/m.asp?m=51640
51643,,Bernard de Marigny,,,1983,New Orleans Archdiocesan Cemeteries,29.95925,-90.07188,429 Basin Street,New Orleans,Orleans Parish,Louisiana,Marker can be reached from Basin Street. ,,http://www.hmdb.org/m.asp?m=51643
51644,,Protestant Section,,,1963,New Orleans Archdiocesan Cemeteries,29.95966,-90.07181,429 Basin Street,New Orleans,Orleans Parish,Louisiana,Marker can be reached from Basin Street. ,,http://www.hmdb.org/m.asp?m=51644
51648,,Eliza Lewis,1764-1804,,1984,New Orleans Archdiocesan Cemeteries,29.9597,-90.07183,429 Basin Street,New Orleans,Orleans Parish,Louisiana,Marker can be reached from Basin Street. ,,http://www.hmdb.org/m.asp?m=51648
51649,,Veterans Memorial,,,1984,New Orleans Archdiocesan Cemeteries,29.95966,-90.07187,429 Basin Street,New Orleans,Orleans Parish,Louisiana,Marker is on Basin Street. ,,http://www.hmdb.org/m.asp?m=51649
51650,,Claiborne Tomb,Gaines Tomb,,1988,New Orleans Archdiocesan Cemeteries,29.95962,-90.07176,429 Basin Street,New Orleans,Orleans Parish,Louisiana,Marker is on Basin Street. ,,http://www.hmdb.org/m.asp?m=51650
51651,,Closures – Grillwork,,,1984,New Orleans Archdiocesan Cemeteries,29.95949,-90.07166,429 Basin Street,New Orleans,Orleans Parish,Louisiana,Marker can be reached from Basin Street. ,,http://www.hmdb.org/m.asp?m=51651
51653,,Multiple Burials,,,,,29.95934,-90.07129,429 Basin Street,New Orleans,Orleans Parish,Louisiana,Marker is on Basin Street. ,,http://www.hmdb.org/m.asp?m=51653
51660,,Gilmour – Parker House,,,1987,New Orleans Landmarks Commission,29.93074,-90.08292,1520 Prytania Street,New Orleans,Orleans Parish,Louisiana,Marker is on Prytania Street. ,,http://www.hmdb.org/m.asp?m=51660
51661,,R.N. Girling’s “English Apothecary”,,,2004,The Descendants of R.N. Girling,29.92987,-90.08463,2726 Prytania Street,New Orleans,Orleans Parish,Louisiana,Marker is on Prytania Street. ,,http://www.hmdb.org/m.asp?m=51661
51662,,Commander’s Palace,Founded in 1880,,1944,Mr. & Mrs. Frank and Eleanore Moran,29.92883,-90.08427,1403 Washington Avenue,New Orleans,Orleans Parish,Louisiana,Marker is at the intersection of Washington Avenue and Coliseum Street on Washington Avenue. ,,http://www.hmdb.org/m.asp?m=51662
51866,,Orleans Battalion of Artillery,,,,New Orleans Archdiocesan Cemeteries,29.9594,-90.07167,429 Basin Street,New Orleans,Orleans Parish,Louisiana,Marker is on Basin Street. ,,http://www.hmdb.org/m.asp?m=51866
51987,,Italian Hall,1020 Esplanade Ave.,,2001,New Orleans Jazz Commission,29.96543,-90.06321,1020 Esplanade Avenue,New Orleans,Orleans Parish,Louisiana,Marker is on Esplanade Avenue. ,,http://www.hmdb.org/m.asp?m=51987
52725,,Harvey Castle Site,,,1986,Jefferson Historical Society of Louisiana,29.90763,-90.08388,3000 4th Street,Harvey,Jefferson Parish,Louisiana,Marker is at the intersection of 4th street and Destrehan Road on 4th street. ,,http://www.hmdb.org/m.asp?m=52725
54114,,Higgins Boat (LCVP),,,2012,Department of History at the University of New Orleans,29.93659,-90.0776,1755 St. Charles Avenue,New Orleans,Orleans Parish,Louisiana,Marker is at the intersection of St. Charles Avenue and Felicity Street on St. Charles Avenue. ,,http://www.hmdb.org/m.asp?m=54114
54133,,The 747,741-747 Magazine Street <br> 1867 - 2004,,,,29.94584,-90.0692,741-747 Magazine Street,New Orleans,Orleans Parish,Louisiana,"Marker is on Magazine Street, on the right when traveling south. ",,http://www.hmdb.org/m.asp?m=54133
54153,,United States Mint,Erected 1835,,,Orleans Parish Landmarks Commission,29.96148,-90.05765,420 Esplanade Avenue,New Orleans,Orleans Parish,Louisiana,"Marker is on Esplanade Avenue, on the right when traveling east. ",,http://www.hmdb.org/m.asp?m=54153
54175,,Gardette - Le Pretre House,,,,,29.95951,-90.0662,716 Dauphine Street,New Orleans,Orleans Parish,Louisiana,"Marker is on Dauphine Street near Orleans Avenue, on the left when traveling south. ",,http://www.hmdb.org/m.asp?m=54175
54194,,Evans Creole Candy Factory,Since 1900,,,,29.95815,-90.06135,848 Decatur Street,New Orleans,Orleans Parish,Louisiana,"Marker is on Decatur Street near Dumaine Street, on the right when traveling north. ",,http://www.hmdb.org/m.asp?m=54194
54330,,700 South Peters,,,,,29.94595,-90.06582,700 South Peters Street,New Orleans,Orleans Parish,Louisiana,"Marker is on South Peters Street near Girod Street, on the right when traveling north. ",,http://www.hmdb.org/m.asp?m=54330
54858,,Original Old Absinthe Bar,Est. 1806,,,,29.9554,-90.06842,240 Bourbon Street,New Orleans,Orleans Parish,Louisiana,"Marker is at the intersection of Bourbon Street, on the right when traveling east on Bourbon Street. ",,http://www.hmdb.org/m.asp?m=54858
54937,,Starting Point of the First Traditional New Orleans Mardi Gras Parade,,,2009,Friends of the New Orleans Carnival,29.94546,-90.06931,,New Orleans,Orleans Parish,Louisiana,"Marker is at the intersection of Julia Street and Magazine Street, on the right when traveling west on Julia Street. ",,http://www.hmdb.org/m.asp?m=54937
55033,,Denis House,,,2003,New Orleans Landmarks Commission,29.96265,-90.05936,1321 Chartres Street,New Orleans,Orleans Parish,Louisiana,Marker is at the intersection of Chartres Street and Esplanade Avenue on Chartres Street. ,,http://www.hmdb.org/m.asp?m=55033
55149,,St. Patrick's Church,,,1975,National Park Service - United States Department of the Interior,29.94656,-90.06999,724 Camp Street,New Orleans,Orleans Parish,Louisiana,"Marker is on Camp Street, on the right when traveling north. ",,http://www.hmdb.org/m.asp?m=55149
55572,,St. Patrick's,,,,,29.94656,-90.06999,724 Camp St,New Orleans,Orleans Parish,Louisiana,"Marker is on Camp St, on the right when traveling north. ",,http://www.hmdb.org/m.asp?m=55572
55702,,Saint Patrick's Church,,,,Archdiocese Bicentennial 200 Commission of New Orleans,29.94663,-90.06997,724 Camp Street,New Orleans,Orleans Parish,Louisiana,"Marker is on Camp Street, on the right when traveling north. ",,http://www.hmdb.org/m.asp?m=55702
56026,,The Old Portage,,,1963,The Department of Commerce and Industry [of LA],29.97848,-90.08809,,New Orleans,Orleans Parish,Louisiana,"Marker is at the intersection of Moss Street and Bell Street, on the right when traveling south on Moss Street. ",,http://www.hmdb.org/m.asp?m=56026
58211,,Home Place,,,1975,St. Charles Parish Police Jury and St. Charles Bicentennial Committee in cooperation with Louisiana Tourist Division of Department of Commerce.,29.97139,-90.40588,,Hahnville,St. Charles Parish,Louisiana,"Marker is on River Road (State Highway 18), on the left when traveling west. ",,http://www.hmdb.org/m.asp?m=58211
58213,,Battle of des Allemands,,,,,29.826,-90.46367,,Des Allemands,St. Charles Parish,Louisiana,Marker is on U.S. 90. ,,http://www.hmdb.org/m.asp?m=58213
58214,,Skirmish of Boutte Station,,,,St. Charles Parish Police Jury and St. Charles Bicentennial Committee.,29.90067,-90.38833,,Boutte,St. Charles Parish,Louisiana,"Marker is at the intersection of U.S. 90 and Magnolia Ridge Road, on the right when traveling east on U.S. 90. ",,http://www.hmdb.org/m.asp?m=58214
58215,,Fashion Plantation,,,1961,Louisiana Department of Commerce and Industry,29.95633,-90.403,,Hahnville,St. Charles Parish,Louisiana,"Marker is at the intersection of River Road (State Highway 18) and Plantation Road, on the right when traveling west on River Road. ",,http://www.hmdb.org/m.asp?m=58215
58216,,Flagville,,,1962,Louisiana Department of Commerce and Industry,29.9645,-90.40583,,Hahnville,St. Charles Parish,Louisiana,"Marker is at the intersection of River Road (State Highway 18) and Richards Lane, on the left when traveling west on River Road. ",,http://www.hmdb.org/m.asp?m=58216
59218,,Chalmette Monument,,,1947,Chalmette Chapter United States Daughters of 1812,29.94245,-89.99413,,Chalmette,St. Bernard Parish,Louisiana,Marker is on Battlefield Road. ,,http://www.hmdb.org/m.asp?m=59218
60227,,Battle for the Mississippi: The Vicksburg Campaign,,,,,32.32557,-90.98985,,Taliulah,Madison Parish,Louisiana,Marker is on Interstate 20 at milepost 184. ,,http://www.hmdb.org/m.asp?m=60227
60239,,Grant's March Through Louisiana,,,,,32.32549,-90.98986,836 I-20,Mound,Madison Parish,Louisiana,Marker is on Interstate 20 at milepost 184 when traveling west. ,,http://www.hmdb.org/m.asp?m=60239
62015,,Factory,McIlhenny Company,Tabasco,,,29.9036,-91.9036,,Avery Island,Iberia Parish,Louisiana,Marker is on State Highway 329. <font color=red> Reported missing.</font>,Reported Missing,http://www.hmdb.org/m.asp?m=62015
62038,,Cheniere Caminada Cemetery,,,1996,Cheniere Hurricane Centennial & Lafourche Heritage Society,29.20491,-90.05886,,Grand Isle,Jefferson Parish,Louisiana,"Marker is on State Highway 1, on the right when traveling east. ",,http://www.hmdb.org/m.asp?m=62038
62355,,Plaquemines Parish,,,2012,Plaquemines Parish Government,29.87641,-90.01483,7124 Louisiana 23,Belle Chasse,Plaquemines Parish,Louisiana,"Marker is on Belle Chasse Highway (State Highway 23) west of Mildred Street, in the median. ",,http://www.hmdb.org/m.asp?m=62355
66241,,Colonial Gateway Corral,,,1968,Louisiana Tourist Commission,31.74894,-93.0947,,Natchitoches,Natchitoches Parish,Louisiana,Marker is on Sam Sibley Drive near Central Ave.. ,,http://www.hmdb.org/m.asp?m=66241
66243,,Pillars of Progress,Desegregation of SLI,,2004,"Alumni Association, University of Louisiana at Lafayette",30.21309,-92.02058,,Lafayette,Lafayette Parish,Louisiana,Marker is on Rex Street near E.St. Mary Blvd.. ,,http://www.hmdb.org/m.asp?m=66243
66354,,Evangeline Oak,,,1982,"Louisiana Department of Culture, Recreation and Tourism",30.1221,-91.8275,,St. Martinville,St. Martin Parish,Louisiana,Marker is on Port Street near S New Market Street. ,,http://www.hmdb.org/m.asp?m=66354
66359,,Judge Émile Édouard (Edward) Simon,1824-1914,,,City of St. Martinville,30.1218,-91.8275,,St. Martinville,St. Martin Parish,Louisiana,Marker is on Port Street near S New Market Street. ,,http://www.hmdb.org/m.asp?m=66359
66363,,Henry Wadsworth Longfellow,(1807 - 1882),"""Poet of the People""",2005,,30.1218,-91.8274,,St. Martinville,St. Martin Parish,Louisiana,Marker is on Port Street near S New Market Street. ,,http://www.hmdb.org/m.asp?m=66363
66367,,St. Martinville,,,1981,"Louisiana Department of Culture, Recreation, and Tourism",30.1232,-91.8292,133 South Main Street,St. Martinville,St. Martin Parish,Louisiana,Marker is at the intersection of Main Street (State Highway 31) on Main Street. ,,http://www.hmdb.org/m.asp?m=66367
66369,,Attakapa Indian,,,1961,,30.1236,-91.8289,133 S Main Street,St. Martinville,St. Martin Parish,Louisiana,Marker is at the intersection of Main Street (State Highway 31) on Main Street. ,,http://www.hmdb.org/m.asp?m=66369
66943,,Clyde Barrow and Bonnie Parker,,,,Bienville Parish Police Jury,32.44125,-93.0927,,Gibsland,Bienville Parish,Louisiana,"Marker is on State Highway 154, 8 miles south of Gibsland / I-20, on the right when traveling south. ",,http://www.hmdb.org/m.asp?m=66943
68710,,Jacques Weil Company,,,,,30.23505,-92.26788,192 E Texas Ave,Rayne,Acadia Parish,Louisiana,"Marker is at the intersection of East Texas Avenue (U.S. 90) and South Polk Street, on the left when traveling west on East Texas Avenue. ",,http://www.hmdb.org/m.asp?m=68710
68722,,"Gilbert du Motier, Marquis de La Fayette",1757 - 1834,,1987,Lafayette Centennial Commission,30.2204,-92.0239,705 W University Ave,Lafayette,Lafayette Parish,Louisiana,"Marker is at the intersection of St Landry Street and West University Avenue (Business U.S. 90), on the right when traveling west on St Landry Street. ",,http://www.hmdb.org/m.asp?m=68722
69237,,El Camino Real,King's Highway,Old San Antonio Trace,1951,State of Louisiana and the Daughters of the American Revolution,31.76329,-93.08574,798 Washington St,Natchitoches,Natchitoches Parish,Louisiana,"Marker is at the intersection of Washington Street (State Highway 6) and Lafayette Street, on the right when traveling north on Washington Street. ",,http://www.hmdb.org/m.asp?m=69237
69329,,Grand Coteau,,,1980,"The Department of Culture, Recreation, and Tourism",30.41694,-92.05319,,Grand Coteau,St. Landry Parish,Louisiana,"Marker is on Gardiner Avenue (State Highway 93) 0.1 miles east of Interstate 49, in the median. ",,http://www.hmdb.org/m.asp?m=69329
70645,,Old Plauche Place / Ducournau Plantation,,,,The Albert Family,31.67425,-93.02201,,Natchez,Natchitoches Parish,Louisiana,"Marker is on State Highway 494, 0.3 miles north of Cedar Bend Road, on the right when traveling north. ",,http://www.hmdb.org/m.asp?m=70645
71147,,Gramercy,,,1968,Louisiana Tourist Development Commission,30.04238,-90.68763,111 LA-44,Gramercy,St. James Parish,Louisiana,"Marker is at the intersection of East Jefferson Highway (State Highway 44) and Ellis Street, on the right when traveling east on East Jefferson Highway. ",,http://www.hmdb.org/m.asp?m=71147
71584,,St. Martin Catholic Church,,,,,30.1231,-91.8289,,St. Martinville,St. Martin Parish,Louisiana,Marker is on South Main Street. ,,http://www.hmdb.org/m.asp?m=71584
72959,,Stewart-Dougherty House,,,,,30.45279,-91.18284,741 North St,Baton Rouge,East Baton Rouge Parish,Louisiana,"Marker is at the intersection of North Street and Lucillia Lane, on the left when traveling east on North Street. <font color=red> Reported missing.</font>",Reported Missing,http://www.hmdb.org/m.asp?m=72959
76613,,Independence,,,1982,the Louisiana Dept. of Commerce and Tourism.,30.63557,-90.50087,539 West Railroad Ave,Independence,Tangipahoa Parish,Louisiana,"Marker is at the intersection of West Railroad Avenue (U.S. 51) and West 4th Street, on the right when traveling north on West Railroad Avenue. ",,http://www.hmdb.org/m.asp?m=76613
76614,,Roncal,,,1959,the Louisiana Department of Commerce and Industry.,30.96263,-90.4994,76354 Highway 51,Kentwood,Tangipahoa Parish,Louisiana,"Marker is on U.S. 51, 1 mile north of State Highway 1053, on the right when traveling north. ",,http://www.hmdb.org/m.asp?m=76614
79555,107,The Blues Trail: Mississippi to Louisiana,,,2010,Mississippi Blues Commission,31.62976,-91.55371,218 Louisiana Avenue,Ferriday,Concordia Parish,Louisiana,"Marker is at the intersection of Louisiana Avenue (State Highway 586) and South 3rd Street, on the right when traveling east on Louisiana Avenue. ",,http://www.hmdb.org/m.asp?m=79555
80412,,Edison Place,,,1973,"New Orleans Public Service, Inc.",29.95585,-90.06848,313 Bourbon Street,New Orleans,Orleans Parish,Louisiana,"Marker is on Bourbon Street north of Bienville Street, on the left when traveling north. ",,http://www.hmdb.org/m.asp?m=80412
80971,,The Harvey Canal,,,1981,the Jefferson Historical Society of Louisiana.,29.91078,-90.08526,3540 River Road,Harvey,Jefferson Parish,Louisiana,"Marker is at the intersection of River Road (State Highway 541) and Destrehan Avenue, on the right when traveling west on River Road. ",,http://www.hmdb.org/m.asp?m=80971
80973,,City of Gretna,,,1982,"the Twilight Gardeners, Gretna, Louisiana.",29.91074,-90.06044,Huey P. Long Avenue,Gretna,Jefferson Parish,Louisiana,"Marker is at the intersection of Huey P. Long Avenue and 11th Street, on the left when traveling north on Huey P. Long Avenue. ",,http://www.hmdb.org/m.asp?m=80973
80975,,Derbigny Plantation,,,2008,the Jefferson Parish Historical Commission.,29.91573,-90.06695,235 Derbigny Street,Gretna,Jefferson Parish,Louisiana,"Marker is at the intersection of Derbigny Street and 3rd Street, on the left when traveling north on Derbigny Street. ",,http://www.hmdb.org/m.asp?m=80975
80976,,McDonoghville,,,2008,the Jefferson Parish Historical Commission.,29.92654,-90.04969,1261 Franklin Avenue,Gretna,Jefferson Parish,Louisiana,"Marker is at the intersection of Franklin Avenue (State Highway 23) and Virgil Street, in the median on Franklin Avenue. ",,http://www.hmdb.org/m.asp?m=80976
80979,,Terrytown,,,2008,the Jefferson Parish Historical Commission.,29.92197,-90.03544,Terry Parkway,Terrytown,Jefferson Parish,Louisiana,"Marker is at the intersection of Terry Parkway and Wright Avenue, in the median on Terry Parkway. ",,http://www.hmdb.org/m.asp?m=80979
81056,,Mel Ott,,,2009,,29.90097,-90.047,2301 Belle Chasse Highway,Gretna,Jefferson Parish,Louisiana,"Marker is on Belle Chasse Highway (Louisiana Route 23) north of Gretna Boulevard, on the right when traveling north. ",,http://www.hmdb.org/m.asp?m=81056
81058,,Centennial Marker,,,1984,the City of Gretna.,29.917,-90.06445,238 Newton Street,Gretna,Jefferson Parish,Louisiana,"Marker is at the intersection of Newton Street and 3rd Street, on the right when traveling south on Newton Street. ",,http://www.hmdb.org/m.asp?m=81058
81060,,David Crockett Firehall,,,,,29.91874,-90.06304,209 Lafayette Street,Gretna,Jefferson Parish,Louisiana,"Marker is at the intersection of Lafayette Street and 2nd Street, on the right when traveling north on Lafayette Street. ",,http://www.hmdb.org/m.asp?m=81060
81061,,Avondale~Waggaman,,,2006,the Jefferson Parish Historical Commission.,29.90977,-90.20332,2901 Highway 90,Avondale,Jefferson Parish,Louisiana,"Marker is at the intersection of U.S. 90 and South Jamie Boulevard, on the right when traveling east on U.S. 90. ",,http://www.hmdb.org/m.asp?m=81061
81062,,Seven Oaks Plantation Site,,,2003,the Jefferson Parish Historical Commission.,29.92489,-90.14602,159 Seven Oaks Boulevard,Westwego,Jefferson Parish,Louisiana,"Marker is at the intersection of Seven Oaks Boulevard (State Highway 18) and River Road (Route 541), on the right when traveling west on Seven Oaks Boulevard. ",,http://www.hmdb.org/m.asp?m=81062
81063,,Phoenix Iron Works,,,,the Jefferson Parish Historical Commission.,29.91768,-90.0664,100 Huey P Long Avenue,Gretna,Jefferson Parish,Louisiana,"Marker is at the intersection of Huey P Long Avenue and 1st Street, on the left when traveling south on Huey P Long Avenue. ",,http://www.hmdb.org/m.asp?m=81063
81065,,Jefferson Parish,,,,the Jefferson Parish Historical Commission.,29.88427,-90.02523,2600 Belle Chasse Highway,Terrytown,Jefferson Parish,Louisiana,"Marker is on Belle Chasse Highway (State Highway 23) 0.1 miles north of Lapalco Boulevard (State Highway 428), in the median. ",,http://www.hmdb.org/m.asp?m=81065
81066,,Baudoin - Foret School,1904-1946,,,,29.73874,-90.65906,2975 Highway 308,Raceland,Lafourche Parish,Louisiana,"Marker is on State Highway 308, 0.1 miles west of Peltier Drive, on the right when traveling west. ",,http://www.hmdb.org/m.asp?m=81066
81067,,Laurel Valley,,,,"the Lafourche Heritage Society, Inc.",29.78957,-90.78685,595 LA-308,Thibodaux,Lafourche Parish,Louisiana,"Marker is on State Highway 308, 0.1 miles south of Percy Brown Road (State Highway 648), on the left when traveling south. ",,http://www.hmdb.org/m.asp?m=81067
81068,,St. Charles Borromeo Church,,,2012,the Lafourche Heritage Society.,29.7534,-90.72068,1985 Louisiana 308,Thibodaux,Lafourche Parish,Louisiana,"Marker is on State Highway 308, 0.1 miles east of Bushgrove Road, on the left when traveling east. ",,http://www.hmdb.org/m.asp?m=81068
81069,,Site of Mount Carmel Academy,1855-1965,,,Archdiocesan Bicentennial Commission.,29.79822,-90.81548,East 1st Street,Thibodaux,Lafourche Parish,Louisiana,"Marker is at the intersection of East 1st Street (State Highway `) and St. Charles Street, on the right when traveling east on East 1st Street. ",,http://www.hmdb.org/m.asp?m=81069
81070,,St. Joseph Cemetery,,,1999,the Lorio Foundation & Lafourche heritage Society.,29.79736,-90.80989,628 East 1st Street,Thibodaux,Lafourche Parish,Louisiana,"Marker is on East 1st Street (State Highway 1) 0.1 miles east of Jones Lane, on the right when traveling east. ",,http://www.hmdb.org/m.asp?m=81070
81071,,City of Thibodaux / Ville de Thibodaux,,,1971,the Louisiana Tourist Commission,29.79577,-90.8013,907 East 1st Street,Thibodaux,Lafourche Parish,Louisiana,"Marker is on East 1st Street (State Highway 1) 0.1 miles west of Bowie Road, on the right when traveling west. ",,http://www.hmdb.org/m.asp?m=81071
81072,,Rienzi Plantation House,,,,the Lorio Foundation and the Lafourche Heritage Society.,29.79925,-90.81341,215 East Bayou Road,Thibodaux,Lafourche Parish,Louisiana,"Marker is on East Bayou Road (State Highway 308) 0.1 miles Rienzi Drive, on the right when traveling west. ",,http://www.hmdb.org/m.asp?m=81072
81073,,Confluence Of Bayous,,,1992,"the Lafourche Historical Society, and the Bayou Lafourche Chapter of the DAR.",29.79623,-90.82451,314 St. Mary Street,Thibodaux,Lafourche Parish,Louisiana,Marker can be reached from the intersection of St. Mary Street and West 1st Street. ,,http://www.hmdb.org/m.asp?m=81073
81077,,St. John's Episcopal Church,,,1974,the Louisiana Tourist Development Commission.,29.79391,-90.82273,718 Jackson Street,Thibodaux,Lafourche Parish,Louisiana,"Marker is at the intersection of Jackson Street (State Highway 20) and West 7th Street, on the right when traveling south on Jackson Street. ",,http://www.hmdb.org/m.asp?m=81077
81079,,Lafourche Parish Court House,,,,the Lorio Foundation and the Lafourche Heritage Society.,29.79762,-90.81993,201 Green Street,Thibodaux,Lafourche Parish,Louisiana,"Marker is at the intersection of Green Street and West 3rd Street, on the left when traveling south on Green Street. ",,http://www.hmdb.org/m.asp?m=81079
81080,,Notre Dame de la Paix,,,2000,Parish of Our Lady of Peace Catholic Church,29.94522,-90.68249,13281 LA-644,South Vacherie,St. James Parish,Louisiana,"Marker is on State Highway 644, 0.2 miles north of Highway 643, on the right when traveling north. ",,http://www.hmdb.org/m.asp?m=81080
81081,,Colonel Leopold L. Armant,,,1965,the Louisiana Tourist Development Commission.,30.00526,-90.73538,LA-18,Vacherie,St. James Parish,Louisiana,"Marker is on State Highway 18, 0.1 miles east of Toth Street, on the right when traveling east. ",,http://www.hmdb.org/m.asp?m=81081
81082,,"""Le Petit Versailles""",,,1961,the Department of Commerce and Industry.,30.00687,-90.7555,3245 Valcour Aime Street,Vacherie,St. James Parish,Louisiana,"Marker is on State Highway 18, 0.2 miles east of Felicite Road, on the right when traveling east. ",,http://www.hmdb.org/m.asp?m=81082
81083,,Golden Grove Plantation,,,,the St. James Historical Society.,30.05005,-90.67567,East Jefferson Highway,Gramercy,St. James Parish,Louisiana,"Marker is on East Jefferson Highway (State Highway 44) 0.2 miles east of South Willow Street, on the left when traveling east. ",,http://www.hmdb.org/m.asp?m=81083
81084,,Colonial Sugars Refinery,,,,,30.04757,-90.68001,East Jefferson Highway,Gramercy,St. James Parish,Louisiana,"Marker is on East Jefferson Highway (State Highway 44) 0.1 miles east of South Willow Street, on the left when traveling east. ",,http://www.hmdb.org/m.asp?m=81084
81085,,Lutcher,,,,"the Kraemer Family in Memory of Clyde Kraemer,",30.03891,-90.69405,1988 Jefferson Highway,Lutcher,St. James Parish,Louisiana,"Marker is at the intersection of Lutcher Avenue (State Highway 3193) and Jefferson Highway (Highway 44), on the right when traveling north on Lutcher Avenue. ",,http://www.hmdb.org/m.asp?m=81085
81086,,"""Vacherie de Grande Pointe""",,,1965,the Louisiana Tourist Development Commission.,30.02066,-90.74158,3105 LA-642,Paulina,St. James Parish,Louisiana,"Marker is at the intersection of State Highway 44 and State Highway 642, on the left when traveling west on State Highway 44. ",,http://www.hmdb.org/m.asp?m=81086
81088,,Bourgeois Homeplace / Site Familial des Bourgeois,,,,the St. James Historical Society.,30.02081,-90.74099,3106 LA-44,Paulina,St. James Parish,Louisiana,"Marker is at the intersection of State Highway 44 and State Highway 642, on the left when traveling east on State Highway 44. ",,http://www.hmdb.org/m.asp?m=81088
81092,,Manresa House of Retreats,,,,,29.99257,-90.82066,LA-44,Convent,St. James Parish,Louisiana,"Marker is on State Highway 44, 0.1 miles east of Manresa Street, on the right when traveling east. ",,http://www.hmdb.org/m.asp?m=81092
81093,,Convent,,,1959,the Louisiana Department of Commerce and Industry.,30.01012,-90.82778,6484 Highway 44,Convent,St. James Parish,Louisiana,"Marker is on State Highway 44, 0.1 miles north of St. Michaels Street, on the left when traveling north. ",,http://www.hmdb.org/m.asp?m=81093
81094,,The Clarinet,,,1996,,29.95276,-90.07525,330 Loyola Avenue,New Orleans,Orleans Parish,Louisiana,"Marker is on Loyola Avenue, 0.1 miles north of Perdido Street, on the right when traveling north. ",,http://www.hmdb.org/m.asp?m=81094
81095,,Poblacion de Barataria,(Barataria Settlement),,1988,the Jefferson Historical Society of Louisiana.,29.80804,-90.11289,5505 Barataria Boulevard,Marrero,Jefferson Parish,Louisiana,"Marker is on Barataria Boulevard, 0.1 miles north of Merlin Lane, on the right when traveling north. ",,http://www.hmdb.org/m.asp?m=81095
81105,,Jazz,,,,the Orleans Parish Landmarks Commission.,29.95293,-90.0752,330 Loyola Avenue,New Orleans,Orleans Parish,Louisiana,"Marker can be reached from Loyola Avenue, 0.1 miles north of Perdido Street, on the right when traveling north. ",,http://www.hmdb.org/m.asp?m=81105
81107,,Gretna City Hall,Centennial 2007,,2007,the Jefferson Parish Historical Commission.,29.91721,-90.06573,2 Huey P Long Avenue,Gretna,Jefferson Parish,Louisiana,"Marker is at the intersection of 2nd Street and Huey P Long Avenue, on the right when traveling east on 2nd Street. ",,http://www.hmdb.org/m.asp?m=81107
81135,,Saint Joseph Church,,,,the Archdiocese Bicentennial Commission.,29.91496,-90.06164,610 6th Street,Gretna,Jefferson Parish,Louisiana,"Marker is at the intersection of 6th Street and Lavoisier Street, on the right when traveling east on 6th Street. ",,http://www.hmdb.org/m.asp?m=81135
81142,,Leonidas Polk,,,,,29.79392,-90.82282,Jackson Street,Thibodaux,Lafourche Parish,Louisiana,"Marker is at the intersection of Jackson Street and West 7th Street, on the right when traveling south on Jackson Street. ",,http://www.hmdb.org/m.asp?m=81142
81146,,Hero's Tomb,,,2009,"the Blake Ryan Oubre Squires Circle 4676, the Knights of Columbus 11857.",29.94575,-90.68252,13281 LA-644,South Vacherie,St. James Parish,Louisiana,"Memorial is at the intersection of North Spruce Street and Louisiana Highway 644, on the right when traveling north on North Spruce Street. ",,http://www.hmdb.org/m.asp?m=81146
82599,,Garden District,,,,Garden District Association,29.92984,-90.08509,,New Orleans,Orleans Parish,Louisiana,"Marker is at the intersection of Washington Avenue and Prytania Street, on the right when traveling north on Washington Avenue. ",,http://www.hmdb.org/m.asp?m=82599
84137,,Bellechasse Plantation,,,,Plaquemines Parish Historical Association and Chevron Chemical - Oronite,29.8526,-89.98683,8442 Highway 23,Belle Chasse,Plaquemines Parish,Louisiana,"Marker is at the intersection of Belle Chasse Highway (State Highway 23) and Avenue B, on the right when traveling south on Belle Chasse Highway. ",,http://www.hmdb.org/m.asp?m=84137
84177,,Site of First U.S. District Court,,,1995,Orleans Parrish Landmarks Commission,29.96004,-90.06297,919 Royal Street,New Orleans,Orleans Parish,Louisiana,"Marker is on Royal Street south of St Philip Street, on the right when traveling south. ",,http://www.hmdb.org/m.asp?m=84177
84467,,Grant's Canal,,,1962,Louisiana Civil War Centennial Commission,32.32097,-90.93301,,Delta,Madison Parish,Louisiana,"Marker can be reached from the intersection of Old Highway 80 East and Stafford Drive, on the left when traveling south. ",,http://www.hmdb.org/m.asp?m=84467
84468,,Mississippi Sidestep,,,,National Park Service,32.32096,-90.93302,,Delta,Madison Parish,Louisiana,"Marker can be reached from the intersection of Old Highway 80 East and Stafford Drive, on the left when traveling south. ",,http://www.hmdb.org/m.asp?m=84468
84469,,Grant's Canal,,,1936,Village of Delta,32.32095,-90.93304,,Delta,Madison Parish,Louisiana,"Marker can be reached from the intersection of Old Highway 80 East and Stafford Drive, on the left when traveling south. ",,http://www.hmdb.org/m.asp?m=84469
84470,,Williams' Canal – 1862,,,,National Park Service,32.32094,-90.93308,,Delta,Madison Parish,Louisiana,"Marker can be reached from the intersection of Old Highway 80 East and Stafford Drive, on the left when traveling south. ",,http://www.hmdb.org/m.asp?m=84470
84471,,U.S. Operations Against Vicksburg,"May 18 - July 24, 1862",,,the U.S. War Department,32.32092,-90.93307,,Delta,Madison Parish,Louisiana,"Marker can be reached from the intersection of Old Highway 80 East and Stafford Drive, on the left when traveling south. ",,http://www.hmdb.org/m.asp?m=84471
84472,,Grant's Canal – 1863,,,,National Park Service,32.32087,-90.93303,,Delta,Madison Parish,Louisiana,"Marker can be reached from the intersection of Old Highway 80 East and Stafford Drive, on the left when traveling south. ",,http://www.hmdb.org/m.asp?m=84472
84474,,Freedmen Fight at Milliken's Bend,,,,National Park Service,32.32076,-90.93296,,Delta,Madison Parish,Louisiana,"Marker can be reached from the intersection of Old Highway 80 East and Stafford Drive, on the left when traveling south. ",,http://www.hmdb.org/m.asp?m=84474
84475,,U.S. African Brigade,District Northeast Louisiana Army of the Tennessee,,,the U.S. War Department,32.32065,-90.93289,,Delta,Madison Parish,Louisiana,"Marker can be reached from the intersection of Old Highway 80 East and Stafford Drive, on the left when traveling south. ",,http://www.hmdb.org/m.asp?m=84475
84476,,Ninth Regiment Connecticut Volunteers,,,2008,,32.32067,-90.93281,,Delta,Madison Parish,Louisiana,"Memorial can be reached from the intersection of Old Highway 80 East and Stafford Drive, on the left when traveling south. ",,http://www.hmdb.org/m.asp?m=84476
84803,,Andrew Jackson Hotel,,,1965,,29.96017,-90.06317,919 Royal Street,New Orleans,Orleans Parish,Louisiana,"Marker is on Royal Steet south of St Philip Street, on the right when traveling south. ",,http://www.hmdb.org/m.asp?m=84803
84916,,Louis Hebert,,,,,30.34111,-91.85556,2184 Bushville Hwy,Cecilia,St. Martin Parish,Louisiana,"Marker is at the intersection of Bushville Highway (State Highway 347) and Hilda Calais Road, on the right when traveling north on Bushville Highway. ",,http://www.hmdb.org/m.asp?m=84916
84995,,Abe Hawkins,? - 1867,,,Shell Chemical LP,30.17567,-90.99784,,Geismar,Ascension Parish,Louisiana,"Marker is on Ashland Road (State Highway 3251) 0.2 miles east of River Road (State Highway 75), on the right when traveling west. ",,http://www.hmdb.org/m.asp?m=84995
84999,,Antonia Plantation,,,2008,The Becnel Family,30.40309,-91.22152,,Brusly,West Baton Rouge Parish,Louisiana,"Marker is at the intersection of South River Road (State Highway 988) and Antonio Road, on the right when traveling south on South River Road. ",,http://www.hmdb.org/m.asp?m=84999
85000,,Addis Museum,"""Bank Of Addis""",,,Town of Addis,30.35442,-91.26676,,Addis,West Baton Rouge Parish,Louisiana,"Marker is at the intersection of Ray Rivet Street and Harris Avenue, on the right when traveling south on Ray Rivet Street. ",,http://www.hmdb.org/m.asp?m=85000
85007,,"James ""Slim Harpo"" Moore",,,,,30.50465,-91.22825,,Port Allen,West Baton Rouge Parish,Louisiana,"Marker is at the intersection of Ronald Reagan Highway (U.S. 190) and South Mulatto Bend Road, on the right when traveling east on Ronald Reagan Highway. ",,http://www.hmdb.org/m.asp?m=85007
85008,,The Settlement Of Freetown,,,,Freetown's Family and Friends,30.04351,-90.84614,,St. James,St. James Parish,Louisiana,"Marker is at the intersection of State Highway 18 and Freetown Street, on the left when traveling south on State Highway 18. ",,http://www.hmdb.org/m.asp?m=85008
85019,,Graugnard House,,,,Cargill Incorporated,30.05445,-90.589,2154 LA-44,Reserve,St. John the Baptist Parish,Louisiana,"Marker is at the intersection of East Jefferson Highway (State Highway 44) and West 23rd Street, on the right when traveling west on East Jefferson Highway. ",,http://www.hmdb.org/m.asp?m=85019
85024,,St. Raphael Cemetery,,,,"Preservation of Iberville, Inc.",30.25279,-91.11839,,Bayou Goula,Iberville Parish,Louisiana,"Marker is on State Highway 405, ½ mile south of Stewart Street, on the right when traveling south. ",,http://www.hmdb.org/m.asp?m=85024
85026,,Pinckney Benton Stewart Pinchback,,,,The Southern University Class of 1947,30.52068,-91.19682,,Baton Rouge,East Baton Rouge Parish,Louisiana,"Marker is on Leon Netterville Drive south of James J Prestage Street, on the right when traveling south. ",,http://www.hmdb.org/m.asp?m=85026
85027,,Scott's Bluff,,,,,30.52136,-91.19729,,Baton Rouge,East Baton Rouge Parish,Louisiana,"Marker is at the intersection of Leon Netterville Drive and James J Prestage Street, on the right when traveling south on Leon Netterville Drive. ",,http://www.hmdb.org/m.asp?m=85027
85037,,Allen Chapel AME Church,,,1999,Lorio Foundation & Lafourche Heritage Society,29.78903,-90.81863,1101 Lagarde Street,Thibodaux,Lafourche Parish,Louisiana,"Marker is at the intersection of Lagarde Street and East 11th Street, on the right when traveling north on Lagarde Street. ",,http://www.hmdb.org/m.asp?m=85037
85042,,Bayside Plantation,,,1970,Louisiana Tourist Commission,29.93198,-91.68113,,Jeanerette,Iberia Parish,Louisiana,"Marker is on Old Jeanerette Road (State Highway 87) 0.1 miles north of Bayside Street (Route 3182), on the right when traveling north. ",,http://www.hmdb.org/m.asp?m=85042
85047,,Frederick Larned Gates,,,1972,Louisiana Tourist Development Commission,30.00168,-91.81135,,New Iberia,Iberia Parish,Louisiana,"Marker is at the intersection of East Main Street (State Highway 182) and Prairie Avenue, on the right when traveling west on East Main Street. ",,http://www.hmdb.org/m.asp?m=85047
85048,,Félicité,,,,New Iberia Sesquicentennial Commission,30.00283,-91.81335,445 E Main St,New Iberia,Iberia Parish,Louisiana,"Marker is at the intersection of East Main Street (State Highway 182) and Civic Center Circle, on the left when traveling east on East Main Street. ",,http://www.hmdb.org/m.asp?m=85048
85049,,New Iberia,,,1958,Louisiana Department of Commerce and Industry,30.00272,-91.8135,445 E Main St,New Iberia,Iberia Parish,Louisiana,"Marker is at the intersection of East Main Street (State Highway 182) and Civic Center Circle, on the left when traveling east on East Main Street. ",,http://www.hmdb.org/m.asp?m=85049
85052,,Olivier Plantation,,,,,29.91945,-91.79845,,Lydia,Iberia Parish,Louisiana,"Marker is on Weeks Island Road (State Highway 83) 0.3 miles east of Coulee Road, on the left when traveling east. ",,http://www.hmdb.org/m.asp?m=85052
85053,,Curole House,,,1995,Lafourche Heritage Society,29.5155,-90.33402,,Cut Off,Lafourche Parish,Louisiana,"Marker is at the intersection of West Main Street (State Highway 1) and West 78th Street, on the right when traveling south on West Main Street. ",,http://www.hmdb.org/m.asp?m=85053
85055,,Cote Blanche,,,,Gheens Foundation and Lafourche Heritage Society,29.51408,-90.33375,,Cut Off,Lafourche Parish,Louisiana,"Marker is at the intersection of West Main Street (State Highway 1) and West 79th Street, on the right when traveling south on West Main Street. ",,http://www.hmdb.org/m.asp?m=85055
85056,,Maurin's Theater,,,,,30.05495,-90.55793,115 W 4th St,Reserve,St. John the Baptist Parish,Louisiana,"Marker is at the intersection of West 4th Street and Louisiana Highway 44, on the left when traveling north on West 4th Street. ",,http://www.hmdb.org/m.asp?m=85056
85057,,Magnolia Cemetery,Founded In 1883,,,,29.59845,-90.7169,,Houma,Terrebonne Parish,Louisiana,"Marker is on West Main Street (State Highway 182) east of Gabasse Street, on the right when traveling east. ",,http://www.hmdb.org/m.asp?m=85057
85061,,Salem Baptist Church,,,1975,Livingston Parish Police Jury,30.62777,-90.84668,36474 Weiss Rd,Walker,Livingston Parish,Louisiana,"Marker is on Weiss Road (State Highway 63) 0.7 miles east of Walker Road North (State Highway 447), on the left when traveling east. ",,http://www.hmdb.org/m.asp?m=85061
85063,,Bayou Heron Graveyard,,,1991,Lafourche Heritage Society,29.906,-90.76202,,Chackbay,Lafourche Parish,Louisiana,"Marker is on State Highway 20 east of Farmer Lane, on the right when traveling east. ",,http://www.hmdb.org/m.asp?m=85063
85064,,Beauregard Town,,,,City of Baton Rouge,30.44352,-91.18392,,Baton Rouge,East Baton Rouge Parish,Louisiana,"Marker is at the intersection of Government Street (State Highway 73) and Napoleon Street, on the right when traveling west on Government Street. ",,http://www.hmdb.org/m.asp?m=85064
85065,,Williams Memorial Airport,,,1969,Louisiana Tourist Commission,29.71415,-91.33905,,Patterson,St. Mary Parish,Louisiana,"Marker is at the intersection of State Highway 182 and Airport Circle, on the left when traveling south on State Highway 182. ",,http://www.hmdb.org/m.asp?m=85065
85066,,Jared Young Sanders,1869-1944,,1974,Louisiana Tourist Development Commission,29.79147,-91.5002,,Franklin,St. Mary Parish,Louisiana,"Marker is at the intersection of Main Street (State Highway 182) and Willow Street (State Highway 3069), on the right when traveling north on Main Street. ",,http://www.hmdb.org/m.asp?m=85066
85067,,Charles Austin O'Niell,,,1970,Louisiana Tourist Commission,29.79143,-91.50032,,Franklin,St. Mary Parish,Louisiana,"Marker is at the intersection of Main Street (State Highway 182) and Willow Street (State Highway 3069), on the right when traveling north on Main Street. ",,http://www.hmdb.org/m.asp?m=85067
85069,,Franklin's Historic Lampposts,,,,Patriotic Order Sons of America - - Franklin,29.78498,-91.49748,,Franklin,St. Mary Parish,Louisiana,"Marker is on Main Street (State Highway 182) north of Foster Avenue, on the right when traveling north. ",,http://www.hmdb.org/m.asp?m=85069
85070,,Battle Of Irish Bend,"April 14, 1863",,,,29.7915,-91.50007,,Franklin,St. Mary Parish,Louisiana,"Marker is at the intersection of Willow Street (State Highway 3069) and Main Street (State Highway 182), on the right when traveling west on Willow Street. ",,http://www.hmdb.org/m.asp?m=85070
85071,,The Gunboat Diana,,,,,29.79148,-91.50012,,Franklin,St. Mary Parish,Louisiana,"Marker is at the intersection of Willow Street (State Highway 3069) and Main Street (State Highway 182), on the left when traveling west on Willow Street. ",,http://www.hmdb.org/m.asp?m=85071
85072,,German Prisoner of War Camp,,,2005,Franklin Rotary Club,29.79578,-91.50125,920 Main Street,Franklin,St. Mary Parish,Louisiana,"Marker is at the intersection of Main Street (State Highway 182) and Iberia Street, on the right when traveling north on Main Street. ",,http://www.hmdb.org/m.asp?m=85072
85079,,Franklin,,,1958,Louisiana Department of Commerce and Industry,29.79145,-91.50025,,Franklin,St. Mary Parish,Louisiana,"Marker is at the intersection of Willow Street (State Highway 3069) and Main Street (State Highway 182), on the left when traveling west on Willow Street. ",,http://www.hmdb.org/m.asp?m=85079
85080,,Murphy James Foster,(1849-1921),,1964,Department of Commerce and Industry,29.77463,-91.48913,,Franklin,St. Mary Parish,Louisiana,"Marker is on West Main Street (State Highway 182) 0.2 miles east of Dixie Road South, on the right when traveling east. ",,http://www.hmdb.org/m.asp?m=85080
85081,,Donelson Caffery,(1835-1906),,1964,Department of Commerce and Industry,29.8022,-91.49623,407 Sterling Road,Franklin,St. Mary Parish,Louisiana,"Marker is on Sterling Road (State Highway 322) west of Haifleigh Street, on the right when traveling west. ",,http://www.hmdb.org/m.asp?m=85081
85082,,Battle Of Bisland,,,1981,"Department of Culture, Recreation and Tourism",29.69778,-91.36775,,Patterson,St. Mary Parish,Louisiana,"Marker is on U.S. 90, 0.3 miles west of Louisiana Highway 182, on the right when traveling north. ",,http://www.hmdb.org/m.asp?m=85082
85121,,St. John the Baptist Catholic Cemetery,,,2010,West Baton Rouge Historical Association,30.3856,-91.23742,402 S Kirkland Dr (River Road),Brusly,West Baton Rouge Parish,Louisiana,"Marker can be reached from South Kirkland Drive (State Highway 988) south of Bourgeois Street, on the right when traveling south. ",,http://www.hmdb.org/m.asp?m=85121
85143,,Caroline Deslonde Beauregard,Wife of Confederate General P.G.T. Beauregard,"1831- March, 1864",,New Orleans Chapter #72 United Daughters of the Confederacy.,30.04478,-90.55868,2361 Highway 18,Edgard,St. John the Baptist Parish,Louisiana,"Marker can be reached from the intersection of State Highway 18 and East 3rd Street, on the right when traveling east. ",,http://www.hmdb.org/m.asp?m=85143
85155,,Hebron Baptist Church,,,1975,Louisiana Tourist Development Commission.,30.41603,-90.91597,24063 LA-16,Denham Springs,Livingston Parish,Louisiana,"Marker is on State Highway 16, 0.3 miles north of Griffin Lane, on the left when traveling north. ",,http://www.hmdb.org/m.asp?m=85155
85156,,St. Joseph Catholic Cemetery,,,,City of Baton Rouge,30.4521,-91.17318,1500 Main St.,Baton Rouge,East Baton Rouge Parish,Louisiana,"Marker is on Main Street east of North 15th Street, on the left when traveling east. ",,http://www.hmdb.org/m.asp?m=85156
85157,,St. Stephen's Episcopal Church and Cemetery,,,,,30.89696,-91.66716,,Williamsport,Pointe Coupee Parish,Louisiana,"Marker is on Mississippi River Trail (Louisiana Route 418) 0.2 miles north of Highway 971, on the left when traveling north. ",,http://www.hmdb.org/m.asp?m=85157
85187,,Oak Alley Plantation,,,1981,"Department of Culture, Recreation and Tourism",30.00688,-90.77665,3645 LA-18,Vacherie,St. James Parish,Louisiana,"Marker is on State Highway 18, 0.6 miles west of Felicite Road, on the right when traveling west. ",,http://www.hmdb.org/m.asp?m=85187
85189,,Donaldsonville,,,1970,Louisiana Tourist Commission,30.10464,-90.99015,300 Houmas St,Donaldsonville,Ascension Parish,Louisiana,"Marker is on Houmas Street north of Opelousas Street, on the left when traveling north. ",,http://www.hmdb.org/m.asp?m=85189
85191,,Francis T. Nicholls,1834-1912,,1957,Louisiana Department of Commerce and Industry,30.10468,-90.98935,,Donaldsonville,Ascension Parish,Louisiana,"Marker is at the intersection of Nicholls Street and Houmas Street, on the right when traveling east on Nicholls Street. ",,http://www.hmdb.org/m.asp?m=85191
85216,,Opelousas Colored School,(1919-1953),,,Cleco,30.53087,-92.07473,,Opelousas,St. Landry Parish,Louisiana,"Marker is on Ronald Reagan Highway (Vine Street) (State Highway 190) east of South Academy Street (Highway 3253), on the right when traveling east. ",,http://www.hmdb.org/m.asp?m=85216
85217,,Opelousas Catholic School,,,,"1992-93 O.S.C. Senate; John N. Harper, project consultant.",30.54355,-92.07692,428 E Prudhomme St,Opelousas,St. Landry Parish,Louisiana,"Marker is on East Prudhomme Street east of Viking Lane, on the right when traveling east. ",,http://www.hmdb.org/m.asp?m=85217
85221,,The Founding Of Baton Rouge,,,1967,City of Baton Rouge,30.44676,-91.18927,100 North Boulevard,Baton Rouge,East Baton Rouge Parish,Louisiana,"Marker can be reached from the intersection of North Boulevard and Layfayette Street, on the left when traveling west. ",,http://www.hmdb.org/m.asp?m=85221
85222,,"Capture of Baton Rouge by Galvez, 1779",,,1979,,30.44638,-91.18855,100 North Boulevard,Baton Rouge,East Baton Rouge Parish,Louisiana,"Marker can be reached from North Boulevard west of St Louis Street, on the right when traveling east. ",,http://www.hmdb.org/m.asp?m=85222
85223,,Marcha de Galvez,,,,,30.44651,-91.18856,100 North Boulevard,Baton Rouge,East Baton Rouge Parish,Louisiana,"Marker can be reached from North Boulevard west of St Louis Street, on the right when traveling east. ",,http://www.hmdb.org/m.asp?m=85223
85242,,Laplace,,,,L' Obeservateur,30.07288,-90.49948,1801 W Airline Hwy,Laplace,St. John the Baptist Parish,Louisiana,"Marker is on Airline Highway (U.S. 61) east of Percy Herbert Road, on the right when traveling south. ",,http://www.hmdb.org/m.asp?m=85242
85243,,Woodland Plantation,,,1984,Woodland Planting and Manufacturing Co.,30.06631,-90.48041,,Laplace,St. John the Baptist Parish,Louisiana,"Marker is at the intersection of Airline Highway (U.S. 61) and Main Street (Louisiana Highway 44), on the right when traveling south on Airline Highway. ",,http://www.hmdb.org/m.asp?m=85243
85244,,A. Montz,,,,,30.06493,-90.48619,,Laplace,St. John the Baptist Parish,Louisiana,"Marker is on West 5th Street (State Highway 44) 0.1 miles north of Main Street, on the right when traveling north. ",,http://www.hmdb.org/m.asp?m=85244
85245,,Bonnet Carré Crevasse,,,,Laplace Centennial Committee,30.04272,-90.4443,,Laplace,St. John the Baptist Parish,Louisiana,"Marker is on East Airline Highway (U.S. 61) 0.2 miles east of Louisiana Highway 3127, on the right when traveling south. ",,http://www.hmdb.org/m.asp?m=85245
85246,,Galveztown,,,1962,Department of Commerce and Industry,30.34194,-90.88894,,Prairieville,Ascension Parish,Louisiana,"Marker is at the intersection of OakGrove-Port Vincent Highway (State Highway 42) and Diez Road, on the right when traveling east on OakGrove-Port Vincent Highway. ",,http://www.hmdb.org/m.asp?m=85246
85247,,First Our Lady of Grace Catholic Church Sanctuary,,,,Riverlands Christian Center Church Family,30.07409,-90.55611,123 Redemption Way,Reserve,St. John the Baptist Parish,Louisiana,"Marker is on Redemption Way east of Northwest 3rd Street, on the right when traveling east. ",,http://www.hmdb.org/m.asp?m=85247
85249,,Battle Of Georgia Landing,"October 27, 1862",,,Louisiana Society Order of Confederate Rose,29.85913,-90.98097,,Labadieville,Assumption Parish,Louisiana,"Marker is at the intersection of State Highway 1 and State Highway 1011, on the right when traveling south on State Highway 1. ",,http://www.hmdb.org/m.asp?m=85249
85276,,St. Peter's Cemetery,,,1985,The Iberia Cultural Resource Assn. and The Attakapas Historical Assn.,30.00537,-91.82204,328 French St,New Iberia,Iberia Parish,Louisiana,"Marker is on French Street south of West Washington Street, on the right when traveling south. ",,http://www.hmdb.org/m.asp?m=85276
