MarkerId,MarkerNumber,Title,Subtitle,Annotation,YearErected,ErectedBy,Latitude,Longitude,StreetAddress,City,County,State,Location,Missing,Link
2184,12308,A. A. & Mary Spacek House,,,1999,Texas Historical Commission,30.716,-97.44515,204 S Rio Grande St,Granger,Williamson County,Texas,"Marker is on South Rio Grande Street north of West Mesquite (Route 971), on the right when traveling south. ",,http://www.hmdb.org/m.asp?m=2184
2204,13802,A. S. Mason House,,,1983,Texas Historical Commission,30.56686,-97.86629,,Leander,Williamson County,Texas,Marker is on Bagdad Road. ,,http://www.hmdb.org/m.asp?m=2204
2245,9029,Andice Baptist Church,,,1976,Texas Historical Commission,30.78187,-97.85439,6570 Fm 970,Andice,Williamson County,Texas,Marker is on Fm 970. ,,http://www.hmdb.org/m.asp?m=2245
2287,12298,Barker House,,,1998,Texas Historical Commission,30.51452,-97.69392,1113 Ledbetter Street,Round Rock,Williamson County,Texas,Marker is on Ledbetter Street. ,,http://www.hmdb.org/m.asp?m=2287
2327,9316,Andrew J. Palm House,,,1978,Texas Historical Commission,30.50902,-97.67728,208 E Main Ave,Round Rock,Williamson County,Texas,Marker is on East Main Avenue near North Lampasas Street. ,,http://www.hmdb.org/m.asp?m=2327
2497,12426,Brick Streets in Granger,,,2001,Texas Historical Commission,30.7179,-97.44533,,Granger,Williamson County,Texas,Marker is on West Davilla Street. ,,http://www.hmdb.org/m.asp?m=2497
2510,9038,Bryson Stagecoach Stop,,,1981,Texas Historical Commission,30.6777,-97.94401,,Liberty Hill,Williamson County,Texas,Marker is on State Highway 29. ,,http://www.hmdb.org/m.asp?m=2510
2544,9039,Burcham House,,,1988,Texas Historical Commission,30.6322,-97.67182,1310 S College St,Georgetown,Williamson County,Texas,Marker is on South College Street. ,,http://www.hmdb.org/m.asp?m=2544
2562,13876,C.A.D. Clamp,(1827–1915),,1990,Texas Historical Commission,30.63732,-97.67701,705 South Main Street,Georgetown,Williamson County,Texas,Marker is on South Main Street. ,,http://www.hmdb.org/m.asp?m=2562
2644,9045,Cotton Cards Factory,,,1964,State Historical Survey Committee,30.63602,-97.43476,,Circleville,Williamson County,Texas,Marker is on State Highway 95. ,,http://www.hmdb.org/m.asp?m=2644
2740,12994,Champion Cemetery,,,2002,Texas Historical Commission,30.51243,-97.75788,,Cedar Park,Williamson County,Texas,Marker is on Brushy Creek Road. ,,http://www.hmdb.org/m.asp?m=2740
2743,9358,City of Taylor,,,1976,Texas Historical Commission,30.5713,-97.40975,,Taylor,Williamson County,Texas,Marker is on North Main Street. ,,http://www.hmdb.org/m.asp?m=2743
2754,12640,City of Weir,,,2002,Texas Historical Commission,30.67478,-97.58638,,Weir,Williamson County,Texas,Marker is on Farm to Market Road 971. ,,http://www.hmdb.org/m.asp?m=2754
2793,9363,Community of Theon,,,1979,Texas Historical Commission,30.76248,-97.59709,,Theon,Williamson County,Texas,Marker is on Farm to Market Road 1105. ,,http://www.hmdb.org/m.asp?m=2793
2801,12702,Confederate Chaplains,Rev. Edward Hudson – Rev. John Hudson,,1964,State Historical Survey Committee,30.52456,-97.6336,,Round Rock,Williamson County,Texas,Marker is on East Palm Valley Boulevard (U.S. 79). ,,http://www.hmdb.org/m.asp?m=2801
2844,9044,Cornhill Cemetery,,,1970,State Historical Survey Committee,30.80207,-97.60422,,Jarrell,Williamson County,Texas,Marker is on County Road 313. ,,http://www.hmdb.org/m.asp?m=2844
2905,13674,David Love Store,,,1988,Texas Historical Commission,30.63713,-97.67816,706 S Austin Ave,Georgetown,Williamson County,Texas,Marker is on South Austin Avenue. ,,http://www.hmdb.org/m.asp?m=2905
2948,9047,Doak Home,,,1965,the Texas Historical Survey Committee,30.57297,-97.41668,600 W 7th St,Taylor,Williamson County,Texas,Marker is on West 7th Street. ,,http://www.hmdb.org/m.asp?m=2948
3087,13616,Dr. James Lee Dickey,,,2006,Texas Historical Commission,30.57212,-97.40534,500 Burkett St,Taylor,Williamson County,Texas,Marker is on Burkett Street. ,,http://www.hmdb.org/m.asp?m=3087
3096,9084,Early Church,,,1970,State Historical Survey Committee,30.83816,-97.78937,,Florence,Williamson County,Texas,Marker is on Suttles Street. ,,http://www.hmdb.org/m.asp?m=3096
3140,9085,Early Commercial Building,,,1970,the Texas Historical Survey Committee,30.50893,-97.67758,203 E Main Ave,Round Rock,Williamson County,Texas,Marker is on East Main Avenue. ,,http://www.hmdb.org/m.asp?m=3140
3197,9086,Eikel-Prewitt Building,,,1985,Texas Historical Commission,30.57037,-97.40966,316 N Main St,Taylor,Williamson County,Texas,Marker is on North Main Street. ,,http://www.hmdb.org/m.asp?m=3197
3208,9028,Elisha Allen,"(December 16, 1813 – March 6, 1893)",,1976,Texas Historical Commission,30.77484,-97.4423,,Bartlett,Williamson County,Texas,Marker is on County Road 387. ,,http://www.hmdb.org/m.asp?m=3208
3265,13603,Farmers State Bank Building,,,2007,Texas Historical Commission,30.63683,-97.67815,716 S Austin Ave,Georgetown,Williamson County,Texas,,,http://www.hmdb.org/m.asp?m=3265
3303,12417,First Baptist Church of Florence,,,2001,Texas Historical Commission,30.84291,-97.79308,106 College Ave,Florence,Williamson County,Texas,Marker is on College Ave near Gardner Street. ,,http://www.hmdb.org/m.asp?m=3303
3379,9091,First Christian Church of Taylor,,,1970,State Historical Survey Committee,30.57264,-97.41103,603 Talbot St,Taylor,Williamson County,Texas,Marker is on Talbot Street. ,,http://www.hmdb.org/m.asp?m=3379
3526,9092,First Presbyterian Church of Taylor,,,1989,Texas Historical Commission,30.57249,-97.41071,114 W 6th St,Taylor,Williamson County,Texas,Marker is on West 6th Street. ,,http://www.hmdb.org/m.asp?m=3526
3562,9094,Fore Cemetery,,,1986,Texas Historical Commission,30.71535,-97.82963,,Andice,Williamson County,Texas,Marker is on County Road 289. ,,http://www.hmdb.org/m.asp?m=3562
3944,13924,Founding of Georgetown,,,1994,"Texas Historical Commission, Sponsored by Daniel Coleman Chapter, NSDAR",30.63576,-97.67598,,Georgetown,Williamson County,Texas,Marker is on E 9th St near S Church St. ,,http://www.hmdb.org/m.asp?m=3944
3952,9328,G.W. Riley House,,,1972,State Historical Survey Committee,30.63234,-97.67183,1302 South College Street,Georgetown,Williamson County,Texas,,,http://www.hmdb.org/m.asp?m=3952
4004,9111,George Irvine House,,,1988,Texas Historical Commission,30.63327,-97.67388,409 E University Ave,Georgetown,Williamson County,Texas,Marker is on East University Avenue. ,,http://www.hmdb.org/m.asp?m=4004
4035,13918,Georgetown Fire House and Old City Hall,,,1984,Texas Historical Commission,30.63584,-97.677,816 S Main St,Georgetown,Williamson County,Texas,Marker is at the intersection of Main Street and E. 9th Street on Main Street. ,,http://www.hmdb.org/m.asp?m=4035
4059,9098,Georgetown High School Building,,,1988,Texas Historical Commission,30.63381,-97.67242,507 E University Ave,Georgetown,Williamson County,Texas,Marker is on E. University Ave. (State Highway 29) near S. Ash Street. ,,http://www.hmdb.org/m.asp?m=4059
4114,9099,Granger Brethren Church,,,1992,Texas Historical Commission,30.71911,-97.44681,326 W Broadway St,Granger,Williamson County,Texas,"Marker is on W Broadway St near Brazos Street, on the right when traveling west. ",,http://www.hmdb.org/m.asp?m=4114
4150,9100,Granger City Hall,(Farmers State Bank),,1994,Texas Historical Commission,30.71751,-97.44079,212 East Davilla Street,Granger,Williamson County,Texas,"Marker is on East Davilla Street (County Route 361) near South Willis Street, on the right when traveling east. ",,http://www.hmdb.org/m.asp?m=4150
4172,9101,Granger High School,,,1991,Texas Historical Commission,30.72004,-97.43682,,Granger,Williamson County,Texas,Marker is on N Colorado St. ,,http://www.hmdb.org/m.asp?m=4172
4220,9103,Harrell-Stone House,,,1976,Texas Historical Commission,30.63142,-97.67405,1404 South Elm Street,Georgetown,Williamson County,Texas,Marker is on South Elm Street. ,,http://www.hmdb.org/m.asp?m=4220
4255,9104,Heinatz Homestead,,,1972,State Historical Survey Committee,30.57523,-97.87139,,Leander,Williamson County,Texas,Marker is on N Bagdad Rd near County Route 2243. ,,http://www.hmdb.org/m.asp?m=4255
4257,9105,Hopewell Cemetery,,,1994,Texas Historical Commission,30.64622,-98.01313,,Liberty Hill,Williamson County,Texas,Marker is on CR-285. ,,http://www.hmdb.org/m.asp?m=4257
4281,9032,"Howard Bland, Sr.",,,1986,Texas Historical Commission,30.56284,-97.37028,,Taylor,Williamson County,Texas,Marker is on Farm to Market Road 112 near Farm to Market Road 619. ,,http://www.hmdb.org/m.asp?m=4281
4299,13477,Hutto Cemetery,,,2004,Texas Historical Commission,30.52097,-97.5461,,Hutto,Williamson County,Texas,Marker is on County Rd 137 near CR-135. ,,http://www.hmdb.org/m.asp?m=4299
4300,9108,Hutto Evangelical Lutheran Church,,,1993,Texas Historical Commission,30.54646,-97.54481,402 Church St,Hutto,Williamson County,Texas,,,http://www.hmdb.org/m.asp?m=4300
4345,13871,Iota Chapter,Kappa Sigma Fraternity,,1986,Texas Historical Commission,30.63585,-97.66716,,Georgetown,Williamson County,Texas,Marker is on Wesleyan Drive. ,,http://www.hmdb.org/m.asp?m=4345
4346,9297,J. A. McDougle Home,,,1975,Texas Historical Commission,30.63222,-97.67405,1312 S Elm St,Georgetown,Williamson County,Texas,Marker is on South Elm Street. ,,http://www.hmdb.org/m.asp?m=4346
4375,9042,Jesse Cooper House,,,1988,Texas Historical Commission,30.64246,-97.64687,,Georgetown,Williamson County,Texas,Marker is on Wilbarger Point north of East University Avenue (Texas Highway 29). ,,http://www.hmdb.org/m.asp?m=4375
4407,12301,Jonah Cemetery,,,1998,Texas Historical Commission,30.63767,-97.51805,,Georgetown,Williamson County,Texas,Marker is on State Highway 29. ,,http://www.hmdb.org/m.asp?m=4407
4408,13919,Judge Greenleaf Fisk,,"(May 19, 1807 – Jan. 26, 1888)",1976,Texas Historical Commission,30.63723,-97.67801,710 S Main St,Georgetown,Williamson County,Texas,Marker is at the intersection of South Austin Avenue and West 7th Street on South Austin Avenue. ,,http://www.hmdb.org/m.asp?m=4408
4419,9002,Kendleton,,,1969,State Historical Survey Committee,29.44753,-96.00039,,Kendleton,Fort Bend County,Texas,Marker is on Loop State Highway 541 north of U.S. 59. ,,http://www.hmdb.org/m.asp?m=4419
4440,9142,Kimbro Family Cemetery,,,1986,Texas Historical Commission,30.49516,-97.49356,,Taylor,Williamson County,Texas,Marker is on Farm to Market Road 3349. ,,http://www.hmdb.org/m.asp?m=4440
4441,12829,Klattenhoff House,,,2002,Texas Historical Commission,30.50715,-97.57808,2450 Farm-to-Market 685,Hutto,Williamson County,Texas,Marker is on Farm to Market Road 685. ,,http://www.hmdb.org/m.asp?m=4441
4456,9257,Lawler Community,,,1971,the Texas Historical Survey Committee,30.8608,-97.74679,,Florence,Williamson County,Texas,Marker is at the intersection of County Road 230 and Farm-To-Market Road (County Road 2843) on County Road 230. ,,http://www.hmdb.org/m.asp?m=4456
4499,,Buddy Holly,1936 - 1959,,1979,Citizens of Lubbock,33.58877,-101.85399,701 Avenue Q,Lubbock,Lubbock County,Texas,"Marker is at the intersection of 7th Street and 8th Street, on the left when traveling west on 7th Street. <font color=red> Reported missing.</font>",Confirmed Missing,http://www.hmdb.org/m.asp?m=4499
4531,13916,Lesesne-Stone Building,(The KGTN Building),,1983,Texas Historical Commission,30.63648,-97.67713,102 W 8th St,Georgetown,Williamson County,Texas,,,http://www.hmdb.org/m.asp?m=4531
4606,9344,"Luther Stearns, Sr.","(Nov. 6, 1784 - Jan. 26, 1859)",,1983,Texas Historical Commission,30.57427,-97.39866,1101 E 4th St,Taylor,Williamson County,Texas,Marker can be reached from 4th Street (County Road 427). ,,http://www.hmdb.org/m.asp?m=4606
4608,13873,M.B. Lockett Building,,,1991,Texas Historical Commission,30.63745,-97.67787,117 W 7th St,Georgetown,Williamson County,Texas,Marker is on 7th Street. ,,http://www.hmdb.org/m.asp?m=4608
4654,10074,Luckenbach,,,1986,Texas Historical Commission,30.17883,-98.75655,412 Luckenbach Town Loop,Luckenbach,Gillespie County,Texas,Marker is on Luckenbach Town Loop near Texas Highway 1376. ,,http://www.hmdb.org/m.asp?m=4654
4660,,Kennedy Assassination Route,,,,,32.77895,-96.80817,,Dallas,Dallas County,Texas,"Marker is at the intersection of N. Houston Street (State Highway 354) and Main Street, on the right when traveling south on N. Houston Street. ",,http://www.hmdb.org/m.asp?m=4660
4661,6895,Formerly The Texas School Book Depository Building,,,1980,Texas Historical Commission,32.77965,-96.80822,411 Elm Street,Dallas,Dallas County,Texas,Marker is at the intersection of Elm Street (State Highway 354) and North Houston Street (State Highway 354) on Elm Street. ,,http://www.hmdb.org/m.asp?m=4661
4672,,John F. Kennedy Memorial Plaza,,,2000,The Sixth Floor Museum at Dealey Plaza,32.77894,-96.80662,,Dallas,Dallas County,Texas,"Marker is on Main Street near S. Record Street, on the right when traveling east. ",,http://www.hmdb.org/m.asp?m=4672
4675,,Dealey Plaza,Birthplace of Dallas,,1940,City of Dallas Park Board,32.77896,-96.80811,,Dallas,Dallas County,Texas,"Marker is at the intersection of N. Houston Street (State Highway 354) and Main Street, on the right when traveling south on N. Houston Street. ",,http://www.hmdb.org/m.asp?m=4675
4677,,Dealey Plaza National Historic Landmark,,,1993,,32.77908,-96.80875,,Dallas,Dallas County,Texas,"Marker is on Elm Street, on the right when traveling west. ",,http://www.hmdb.org/m.asp?m=4677
4682,9294,Macedonia Cemetery,,,1994,Texas Historical Commission,30.69108,-97.48362,,Granger,Williamson County,Texas,Marker is on County Rd 376. ,,http://www.hmdb.org/m.asp?m=4682
4690,12371,Mager Cemetery,,,2000,Texas Historical Commission,30.48848,-97.31947,,Beyersville,Williamson County,Texas,Marker is on FM-1466. ,,http://www.hmdb.org/m.asp?m=4690
4691,9307,Mankins Crossing,(100 yards west),,1990,Texas Historical Commission,30.64663,-97.58263,,Georgetown,Williamson County,Texas,Marker is on County Road 100. ,,http://www.hmdb.org/m.asp?m=4691
4710,9340,Marsh F. Smith House,,,1988,Texas Historical Commission,30.63285,-97.67799,1242 South Austin Avenue,Georgetown,Williamson County,Texas,Marker is on South Austin Avenue. ,,http://www.hmdb.org/m.asp?m=4710
4738,12303,Monodale Community,,,1998,Texas Historical Commission,30.58958,-97.5342,,Hutto,Williamson County,Texas,Marker is on CR-133. ,,http://www.hmdb.org/m.asp?m=4738
4759,4759,Guadalupe Peak,,,1963,Texas Highway Department,31.85426,-104.84484,,Pine Springs,Culberson County,Texas,"Marker is on U.S. 62/180, 3 miles north of Texas Highway 54. ",,http://www.hmdb.org/m.asp?m=4759
4764,13898,Chief Justice John Edward Hickman,<small>(1883 - 1962)</small><br>,,1971,State Historical Survey Committee,30.63723,-97.67801,710 S Main St,Georgetown,Williamson County,Texas,Marker is on South Austin Avenue near West 7th Street. ,,http://www.hmdb.org/m.asp?m=4764
4778,9308,Nelson-Crier House,,,1973,Texas Historical Commission,30.50955,-97.67537,405 E Main Ave,Round Rock,Williamson County,Texas,Marker is on E Main Ave near Burnet Street S.. ,,http://www.hmdb.org/m.asp?m=4778
4788,5407,The Rainmakers of 1891,,,1986,Texas Sesquicentennial 1836 - 1986,31.78258,-106.47975,,El Paso,El Paso County,Texas,Marker can be reached from Scenic Drive. ,,http://www.hmdb.org/m.asp?m=4788
4801,9314,North Fork of the San Gabriel River,,,1988,Texas Historical Commission,30.67425,-97.72346,,Georgetown,Williamson County,Texas,Marker is at the intersection of Lake Overlook Drive and Cedar Breaks Road on Lake Overlook Drive. ,,http://www.hmdb.org/m.asp?m=4801
4831,9035,Old Broom Factory Building,,,1970,State Historical Survey Committee,30.50877,-97.6787,100 East Main Avenue,Round Rock,Williamson County,Texas,Marker is at the intersection of East Main Avenue and North Mayes Street on East Main Avenue. ,,http://www.hmdb.org/m.asp?m=4831
4832,13920,Old Dimmitt Building,,,1965,State Historical Survey Committee,30.63641,-97.677,803 South Main Street,Georgetown,Williamson County,Texas,Marker is at the intersection of South Main Street and 8th Street on South Main Street. ,,http://www.hmdb.org/m.asp?m=4832
4909,9341,Original Site of Southwestern University,,,1989,Texas Historical Commission,30.63329,-97.67287,507 E University Ave,Georgetown,Williamson County,Texas,,,http://www.hmdb.org/m.asp?m=4909
5093,7542,Paul's Union Church,,,1995,Texas Historical Commission,29.36362,-94.95505,1709 Oak St,La Marque,Galveston County,Texas,Marker is on Oak Street north of Apricot Street. ,,http://www.hmdb.org/m.asp?m=5093
5343,12012,"LiveStone Lodge No. 152, F. & A. M.",,,1997,Texas Historical Commission,32.73634,-97.0275,1802 Beaumont,Grand Prairie,Dallas County,Texas,"Marker is on SW 18th Street north of Beaumont Street, on the left when traveling north. ",,http://www.hmdb.org/m.asp?m=5343
5777,3313,Medina County Courthouse,,,1984,Texas Historical Commission,29.35045,-99.14133,1100 16th St.,Hondo,Medina County,Texas,"Marker is on 16th Street, on the left when traveling east. ",,http://www.hmdb.org/m.asp?m=5777
5778,,Stephen F. Austin Memorial Oak Tree,,,,,29.35055,-99.14137,1100 16th St.,Hondo,Medina County,Texas,"Marker is on 16th Street, on the left when traveling east. ",,http://www.hmdb.org/m.asp?m=5778
5779,12144,Hondo,,,1999,Texas Historical Commission,29.34948,-99.14163,,Hondo,Medina County,Texas,"Marker is at the intersection of 17th Street and Avenue M (State Highway 462), on the left when traveling east on 17th Street. ",,http://www.hmdb.org/m.asp?m=5779
5791,13174,Langtry,,,2003,Texas Historical Commission,29.80865,-101.55962,,Langtry,Val Verde County,Texas,"Marker is on Torres Avenue, in the median. ",,http://www.hmdb.org/m.asp?m=5791
5800,13173,William H. Dodd,,,2003,Texas Historical Commission,29.8085,-101.55962,,Langtry,Val Verde County,Texas,"Marker is on Torres Avenue, on the right when traveling south. ",,http://www.hmdb.org/m.asp?m=5800
5801,12987,The Torres Family,,,2003,Texas Historical Commission,29.8085,-101.55927,,Langtry,Val Verde County,Texas,"Marker is on Torres Avenue, on the left when traveling south. ",,http://www.hmdb.org/m.asp?m=5801
5802,13649,Fitzsimmons-Maher Prizefight,,,2006,Texas Historical Commission,29.8072,-101.55535,,Langtry,Val Verde County,Texas,"Marker is on Torres Avenue, on the left when traveling south. ",,http://www.hmdb.org/m.asp?m=5802
5820,14089,Robert Thomas Hill,,,2005,Texas Historical Commission,29.80415,-101.55672,,Langtry,Val Verde County,Texas,"Marker is on Torres Avenue, on the left when traveling south. ",,http://www.hmdb.org/m.asp?m=5820
5821,13175,Eagle’s Nest,,,2003,Texas Historical Commission,29.80417,-101.55662,,Langtry,Val Verde County,Texas,"Marker is on Torres Avenue, on the left when traveling south. ",,http://www.hmdb.org/m.asp?m=5821
5822,3052,Law West of the Pecos,,,1963,Texas Highway Department,29.80927,-101.5604,,Langtry,Val Verde County,Texas,Marker can be reached from Torres Avenue near Loop Texas Highway 25. ,,http://www.hmdb.org/m.asp?m=5822
6702,,San Jacinto Monument,San Jacinto Battlefield,,1939,State of Texas,29.7499,-95.0808,,La Porte,Harris County,Texas,Marker is on One Monument Circle. ,,http://www.hmdb.org/m.asp?m=6702
6978,5441,The Town of Waelder,,,1968,State Historical Survey Committee,29.69299,-97.29898,,Waelder,Gonzales County,Texas,"Marker is at the intersection of North Railroad Street (U.S. 90) and South Avenue E (State Highway 97), on the right when traveling east on North Railroad Street. ",,http://www.hmdb.org/m.asp?m=6978
7284,1992,Fort Lancaster C.S.A.,,,1963,The State of Texas,30.7104,-101.20132,,Ozona,Crockett County,Texas,"Marker is at the intersection of 11th Street (State Highway 466) and Avenue E (State Highway 163), on the left when traveling east on 11th Street. ",,http://www.hmdb.org/m.asp?m=7284
7286,,William Mozart McVey,1905-1995,,,,30.71042,-101.20113,,Ozona,Crockett County,Texas,"Marker is on 11th Street (State Highway 466) east of Avenue E (State Highway 163), on the left when traveling east. ",,http://www.hmdb.org/m.asp?m=7286
7413,1110,Crockett County,,,1936,Texas Highway Department,30.7104,-101.20097,,Ozona,Crockett County,Texas,"Marker is on 11th Street (State Highway 466) east of Avenue E (State Highway 163), on the left when traveling east. ",,http://www.hmdb.org/m.asp?m=7413
8040,8482,"Woodland, Home of Sam Houston",(1793 - 1863),,1968,State Historical Survey Committee,30.71513,-95.55289,1302 19th Street,Huntsville,Walker County,Texas,Marker can be reached from 19th Street near Avenue M. ,,http://www.hmdb.org/m.asp?m=8040
8074,8467,Oakwood Cemetery,,,1976,Texas Historical Commission,30.7265,-95.54731,,Huntsville,Walker County,Texas,"Marker is at the intersection of Avenue I and 9th Street, on the right when traveling north on Avenue I. ",,http://www.hmdb.org/m.asp?m=8074
8079,12367,Joshua Houston,"(c. 1822-January 8, 1902)",,2000,Texas Historical Commission,30.72681,-95.54622,,Huntsville,Walker County,Texas,Marker can be reached from the intersection of Avenue I and 9th Street. ,,http://www.hmdb.org/m.asp?m=8079
8081,,Law Office (Sam Houston),,,1964,"The Grand Lodge of Texas, A.F. & A.M.",30.71488,-95.55254,,Huntsville,Walker County,Texas,Marker can be reached from 19th Street near Avenue M. ,,http://www.hmdb.org/m.asp?m=8081
9224,,The Defense of The Alamo,“Thermopylae had its messenger of defeat; The Alamo had none.”,,,,29.42509,-98.48649,300 Alamo Plaza,San Antonio,Bexar County,Texas,Marker can be reached from the intersection of Alamo Plaza. ,,http://www.hmdb.org/m.asp?m=9224
9228,,Founding of the Mission and Origin of Name,,,,,29.42575,-98.48652,300 Alamo Plaza,San Antonio,Bexar County,Texas,Marker can be reached from Alamo Plaza. ,,http://www.hmdb.org/m.asp?m=9228
9453,9558,Ellerslie Plantation,,,1989,Texas Historical Commission,28.98487,-95.50487,,Jones Creek,Brazoria County,Texas,"Marker is at the intersection of Weldon Road and State Highway 36, on the right when traveling east on Weldon Road. ",,http://www.hmdb.org/m.asp?m=9453
9552,,Vietnam Veterans Memorial,,,2007,St. John's Masonic Lodge #5 A.F. & A.M.,29.14485,-95.64236,,West Columbia,Brazoria County,Texas,"Marker is on North 14th Street north of Hamilton Street, on the right when traveling north. ",,http://www.hmdb.org/m.asp?m=9552
10331,9607,"Old Velasco, CSA",,,1964,Texas Historical Commission,28.95078,-95.28604,,Surfside,Brazoria County,Texas,Marker is at the intersection of Blue Water Highway (State Highway 332) and Surf Drive when traveling east on Blue Water Highway. ,,http://www.hmdb.org/m.asp?m=10331
10332,9605,Velasco,,,1965,Texas Historical Commission,28.95078,-95.28603,,Surfside,Brazoria County,Texas,Marker is on Blue Water Highway (State Highway 332) near Surf Drive when traveling east. ,,http://www.hmdb.org/m.asp?m=10332
12026,,T-28A Trojan,Dedicated 30 June 1998,,1998,United States Air Force,31.43186,-100.41333,,Goodfellow Air Force Base,Tom Green County,Texas,"Marker is at the intersection of Farrow Street and Ft. Lancaster Rd., on the left when traveling west on Farrow Street. ",,http://www.hmdb.org/m.asp?m=12026
12029,,BT-13A Valiant,Dedicated 15 February 1994,,1994,United States Air Force,31.43113,-100.41337,,Goodfellow Air Force Base,Tom Green County,Texas,"Marker is at the intersection of Schertz St. and Pollard Street, on the right when traveling north on Schertz St.. ",,http://www.hmdb.org/m.asp?m=12029
12033,,TB-25N Mitchell,Dedicated 11 November 1983,,1983,United States Air Force,31.42473,-100.40918,,Goodfellow Air Force Base,Tom Green County,Texas,"Marker is on Kearney Boulevard, 0.1 miles north of South Chadbourne Street, on the right when traveling north. ",,http://www.hmdb.org/m.asp?m=12033
12076,5847,William T. Miller Grist Mill,,,1975,Texas Historical Commission,32.08482,-98.34405,120 S. Park Street,Dublin,Erath County,Texas,"Marker is on South Park Street, 0 miles north of West Elm Street, on the left when traveling north. ",,http://www.hmdb.org/m.asp?m=12076
12077,3844,Oldest Rock Building in City,,,1967,State Historical Survey Committee,31.64868,-100.04996,307 Depot Street,Rowena,Runnels County,Texas,"Marker is at the intersection of Depot Street and Victor Street, on the left when traveling south on Depot Street. ",,http://www.hmdb.org/m.asp?m=12077
12236,518,Bronte Depot,,,1989,Texas Historical Commission,31.88719,-100.29512,,Bronte,Coke County,Texas,"Marker is at the intersection of Main Street (State Highway 158) and Railroad Street, on the left when traveling west on Main Street. ",,http://www.hmdb.org/m.asp?m=12236
12238,,Dr Pepper Texas,Pop. 1024,,,,32.08404,-98.34202,221 S. Patrick St.,Dublin,Erath County,Texas,"Marker is on East Elm Street, 0.1 miles east of South Patrick Street (U.S. 377). ",,http://www.hmdb.org/m.asp?m=12238
13782,12597,Bessie Coleman,(1892-1926),,2002,Texas Historical Commission,33.11414,-94.16551,101 North East Street,Atlanta,Cass County,Texas,Marker is on East Street (County Route 249) near Main Street. ,,http://www.hmdb.org/m.asp?m=13782
13785,9320,Bill Pickett,"(ca. December 1870 - March 25, 1932)",,1991,Texas Historical Commission and the Woodson-Dickey History Club,30.57129,-97.40944,400 N Main St,Taylor,Williamson County,Texas,Marker is on North Main Street. ,,http://www.hmdb.org/m.asp?m=13785
14126,9002,Kendleton,,,1976,the Association for Afro-American Life and History,29.44894,-96.00094,,Kendleton,Fort Bend County,Texas,"Marker is on Braxton Street just east of Lum Road (Farm to Market Road 2919), on the right when traveling west. ",,http://www.hmdb.org/m.asp?m=14126
16269,4218,The Red River Plunge of Bonnie and Clyde,,,1975,Texas Historical Commission,34.95942,-100.22235,,Wellington,Collingsworth County,Texas,"Marker can be reached from U.S. 83, on the left when traveling north. ",,http://www.hmdb.org/m.asp?m=16269
16542,4082,Port of Matamoros,,,1995,Texas Historical Commission,26.07831,-97.20694,,Port Isabel,Cameron County,Texas,Marker can be reached from Maxan Road. ,,http://www.hmdb.org/m.asp?m=16542
17496,8802,John H. Reagan Monument,,,1911,"John H. Reagan Chapter, United Daughters of the Confederacy",31.75781,-95.62531,,Palestine,Anderson County,Texas,"Marker is at the intersection of East Park Avenue and Crocket Road (U.S. 287), on the right when traveling west on East Park Avenue. ",,http://www.hmdb.org/m.asp?m=17496
17912,190,Archer County Copper Mines,(¼ mile northeast and 5 miles to the south southeast),,1971,State Historical Survey Committee,33.64694,-98.70635,,Archer City,Archer County,Texas,"Marker is on State Highway 25, 4.5 miles west of State Highway 79, on the right when traveling west. ",,http://www.hmdb.org/m.asp?m=17912
18739,,Bronte Veterans Memorial,,,,,31.88737,-100.29523,,Bronte,Coke County,Texas,"Marker is at the intersection of Main Street (State Highway 158) and Railroad Street, on the right when traveling west on Main Street. ",,http://www.hmdb.org/m.asp?m=18739
18740,4300,Robert Lee Cemetery,,,1973,State Historical Survey Committee,31.89774,-100.47516,,Robert Lee,Coke County,Texas,"Marker is on State Highway 158, on the left when traveling west. ",,http://www.hmdb.org/m.asp?m=18740
18741,12505,Henry Davis Pearce,"(June 4, 1845 - December 8, 1911)",,1970,State Historical Survey Committee,31.89714,-100.47426,,Robert Lee,Coke County,Texas,"Marker can be reached from State Highway 158, on the right when traveling east. ",,http://www.hmdb.org/m.asp?m=18741
19358,6042,Near Routes of Alonso de Leon Expeditions,,,1995,Texas Historical Commission,26.06193,-97.78407,,Santa Maria,Cameron County,Texas,"Marker is on U.S. 281, on the left when traveling east. ",,http://www.hmdb.org/m.asp?m=19358
20273,,El Camino De Nacogdoches,,,1998,"Preservation Associates, Inc., an umbrella organization that includes the Heritage Association of San Marcos, San Marcos Convention and Visitors Bureau, Hays County Historical Commission, Tanger Outlet Mall, Terry Gilmore, Al Lowman, Don Leggitt and Hill Rylander",29.83645,-97.92474,,San Marcos,Hays County,Texas,"Marker is on Old Bastrop Highway, on the right when traveling east. <font color=red> Reported missing.</font>",Reported Missing,http://www.hmdb.org/m.asp?m=20273
20332,748,The Casas Reales,,,1971,State Historical Survey Committee,29.42437,-98.49313,,San Antonio,Bexar County,Texas,"Marker is at the intersection of Market Street and West Main Plaza, on the left when traveling east on Market Street. ",,http://www.hmdb.org/m.asp?m=20332
20365,4556,San Saba Peak,,,1986,Texas Historical Commission,31.37675,-98.5291,,Goldthwaite,Mills County,Texas,"Marker can be reached from U.S. 183, on the right when traveling north. ",,http://www.hmdb.org/m.asp?m=20365
20638,9437,Early Explorers in Llano County,,,1971,State Historical Survey Committee,30.62833,-98.52789,,Llano,Llano County,Texas,"Marker is on Highway 71, on the right when traveling west. ",,http://www.hmdb.org/m.asp?m=20638
20640,9752,"Henry Thomas Lodge, A.F. & A.M.",,,1967,State Historical Survey Committee,30.54289,-98.16764,,Smithwick,Burnet County,Texas,"Marker is on County Road 344, on the right when traveling north. ",,http://www.hmdb.org/m.asp?m=20640
20641,13357,Granite Mountain,,,1936,State of Texas,30.59259,-98.29916,,Marble Falls,Burnet County,Texas,"Marker is on FM 1431, on the right when traveling west. ",,http://www.hmdb.org/m.asp?m=20641
20643,9452,Packsaddle Mountain,,,1936,the State of Texas,30.61104,-98.51806,,Llano,Llano County,Texas,"Marker is on State Highway 71, on the left when traveling east. ",,http://www.hmdb.org/m.asp?m=20643
20644,9711,Site of Fort Croghan,,,1936,the State of Texas,30.75813,-98.23755,703 Buchanan Dr.,Burnet,Burnet County,Texas,Marker is on Buchanan Drive. ,,http://www.hmdb.org/m.asp?m=20644
21252,9243,Ancient Mound,,,1966,State Historical Survey Committee,31.6066,-94.65063,,Nacogdoches,Nacogdoches County,Texas,"Marker is on North Mound Street, on the right when traveling north. ",,http://www.hmdb.org/m.asp?m=21252
21431,9400,"Texas Stagecoaches, C.S.A.",,,1964,State Historical Survey Committee,31.60299,-94.65447,,Nacogdoches,Nacogdoches County,Texas,"Marker is at the intersection of East Main Street and North Fredonia Street, on the right when traveling west on East Main Street. ",,http://www.hmdb.org/m.asp?m=21431
21692,439,Blue Mountain,"(Elevation 3,500 ft.)",,1964,State Historical Survey Committee,31.89311,-102.8576,,Kermit,Winkler County,Texas,"Marker is on State Highway 302, 14 miles State Route 18, on the left when traveling east. ",,http://www.hmdb.org/m.asp?m=21692
22031,14506,Margaret Moffette Lea Houston,"April 11, 1819 - December 3, 1867",,2008,State Historical Survey Committee,30.7151,-95.55288,,Huntsville,Walker County,Texas,Marker can be reached from 19th Street. ,,http://www.hmdb.org/m.asp?m=22031
22753,4354,James J. Ross,,,1985,Texas Historical Commission,29.8537,-96.72876,,Ellinger,Fayette County,Texas,"Marker is on East Farm Road 955, on the right when traveling east. ",,http://www.hmdb.org/m.asp?m=22753
23483,,John McQueen Taylor,"April 24, 1812 – March 14, 1887",,1982,Texas Historical Commission,30.62515,-97.67593,,Georgetown,Williamson County,Texas,Marker is at the intersection of E 20th Street and Paige Street on E 20th Street. ,,http://www.hmdb.org/m.asp?m=23483
23982,4284,Hamblen Drive,,,1968,State Historical Survey Committee,34.7984,-101.43612,3418 Highway 207,Claude,Armstrong County,Texas,"Marker can be reached from Hamblen Drive (State Highway 207) 23.5 miles south of Claude, TX. ",,http://www.hmdb.org/m.asp?m=23982
23990,4401,The S.P. Hamblen Family,,,1970,State Historical Survey Committee,34.86024,-101.40133,,Claude,Armstrong County,Texas,"Marker is on Hamblen Drive (State Highway 207) 18.4 miles south of U.S. 287, on the right when traveling south. ",,http://www.hmdb.org/m.asp?m=23990
24381,4547,Site of the Mission San Lorenzo De La Santa Cruz,,,1936,State of Texas,29.67697,-100.01485,,Camp Wood,Real County,Texas,"Marker is on SR 55, ½ mile north of Ranch Road 337, on the left when traveling north. ",,http://www.hmdb.org/m.asp?m=24381
24382,4749,Site of Camp Wood,,,1936,State of Texas,29.67694,-100.01485,,Camp Wood,Real County,Texas,,,http://www.hmdb.org/m.asp?m=24382
24384,293,Bandera Pass,,,1936,State of Texas,29.85904,-99.10563,,Bandera,Bandera County,Texas,"Marker is on Hwy 173, 10.6 miles north of SR 16, on the left when traveling north. ",,http://www.hmdb.org/m.asp?m=24384
24485,5638,Vance Cemetery,,,1988,Texas Historical Commission,29.81426,-100.01374,,Barksdale,Real County,Texas,"Marker is on Ranch Road 335, 7 miles north of Texas Highway 55, on the right when traveling south. ",,http://www.hmdb.org/m.asp?m=24485
24741,,John Wesley Hardin,,,1962,"State National Bank of El Paso, TX",31.75825,-106.48717,274 East San Antonio Ave,El Paso,El Paso County,Texas,Marker is on East San Antonio Avenue. ,,http://www.hmdb.org/m.asp?m=24741
24743,1427,El Paso del Rio del Norte,,,1936,State of Texas,31.76217,-106.50926,"1720 W Paisano Dr,",El Paso,El Paso County,Texas,"Marker can be reached from West Paisano Drive, on the right when traveling south. ",,http://www.hmdb.org/m.asp?m=24743
24902,13769,Anti-Slaveholding Union Baptist Cemetery,,,1986,Texas Historical Commission,30.52484,-97.654,FM 1460,Round Rock,Williamson County,Texas,Marker is on Farm to Market Road 1460 near Timberline Drive. ,,http://www.hmdb.org/m.asp?m=24902
24905,13803,Smart-McCormick Home,,,1963,State Historical Survey Committee,30.80521,-97.92003,1251 CR 208,Andice,Williamson County,Texas,Marker is on County Road 208. ,,http://www.hmdb.org/m.asp?m=24905
24913,13897,W.C. Vaden House,,,1991,Texas Historical Commission,30.63331,-97.67024,711 E University Ave,Georgetown,Williamson County,Texas,Marker is at the intersection of East University Avenue and Pine Street on East University Avenue. ,,http://www.hmdb.org/m.asp?m=24913
24915,9049,The Double File Trail (Georgetown),,,1978,Texas Historical Commission,30.64498,-97.5925,,Georgetown,Williamson County,Texas,Marker is on State Highway 29. ,,http://www.hmdb.org/m.asp?m=24915
24917,9102,United States Senator Morgan C. Hamilton,,,1975,Texas Historical Commission,30.45966,-97.39067,,Coupland,Williamson County,Texas,Marker is on Hoxie Street. ,,http://www.hmdb.org/m.asp?m=24917
24929,6605,John Neely Bryan and Margaret Beeman Bryan,1810–1877 and 1825–1919,,1978,Texas Historical Commission,32.77934,-96.8087,,Dallas,Dallas County,Texas,"Marker is on Elm Street, on the right when traveling west. ",,http://www.hmdb.org/m.asp?m=24929
24931,9321,Pickle-Mason House,,,1988,Texas Historical Commission,30.58017,-97.86084,,Leander,Williamson County,Texas,"Marker is on West Broade Street (Farm to Market Road 2243), on the right when traveling west. ",,http://www.hmdb.org/m.asp?m=24931
24934,9325,Pond Springs Community and School,,,1979,Texas Historical Commission,30.4462,-97.76518,7825 Elkhorn Mountain Trl,Austin,Williamson County,Texas,,,http://www.hmdb.org/m.asp?m=24934
24935,9329,Rock House Community,,,1981,Texas Historical Commission,30.70489,-97.8722,,Liberty Hill,Williamson County,Texas,"Marker is on Farm to Market Road 3405 near County Route 257, on the right when traveling east. ",,http://www.hmdb.org/m.asp?m=24935
24936,9330,The Round Rock,,,1975,Texas Historical Commission,30.51309,-97.68947,,Round Rock,Williamson County,Texas,Marker is on Chisholm Trail Road (County Road 173). ,,http://www.hmdb.org/m.asp?m=24936
24939,9334,St. James Church,,,1969,State Historical Survey Committee,30.57293,-97.41497,612 Davis St.,Taylor,Williamson County,Texas,,,http://www.hmdb.org/m.asp?m=24939
24947,9342,Southwestern University Main Building,,,1962,Texas Historical Commission,30.63335,-97.66746,1000 E University Ave,Georgetown,Williamson County,Texas,"Marker is on East University Avenue, on the right when traveling west. ",,http://www.hmdb.org/m.asp?m=24947
24949,9354,Taylor National Bank,,,1980,Texas Historical Commission,30.56885,-97.40947,200 N Main St,Taylor,Williamson County,Texas,"Marker is at the intersection of Main Street (State Highway 95) and East 2nd Street, on the right when traveling north on Main Street. ",,http://www.hmdb.org/m.asp?m=24949
24950,9359,Taylor Post Office,,,1992,Texas Historical Commission,30.57052,-97.41098,202 W 4th St,Taylor,Williamson County,Texas,"Marker is on West 4th Street near Talbot Street, on the right when traveling west. ",,http://www.hmdb.org/m.asp?m=24950
24954,13879,Williamson County,,,1970,Texas Historical Commission,30.63687,-97.67751,710 S Main St,Georgetown,Williamson County,Texas,Marker is on West 8th Street near South Main Street. ,,http://www.hmdb.org/m.asp?m=24954
24955,12305,Railroad Produce Warehouse,,,1997,Texas Historical Commission,30.63836,-97.68046,401 W 6th St,Georgetown,Williamson County,Texas,"Marker is on West 6th Street, on the right when traveling west. ",,http://www.hmdb.org/m.asp?m=24955
24956,12306,"San Gabriel Lodge No. 89, A.F. & A.M.",,,1999,Texas Historical Commission,30.64912,-97.66772,800 N College St,Georgetown,Williamson County,Texas,"Marker is on North College Street, on the right when traveling south. ",,http://www.hmdb.org/m.asp?m=24956
24957,12310,Williams-Buck Cemetery,,,1998,Texas Historical Commission,30.73062,-97.91031,,Liberty Hill,Williamson County,Texas,Marker can be reached from County Road 202. ,,http://www.hmdb.org/m.asp?m=24957
24959,12971,Site of Bartlett Colored School,,,2003,Texas Historical Commission,30.79083,-97.43898,,Bartlett,Williamson County,Texas,"Marker is on Arnold Drive west of Cotrell Street, on the right when traveling west. ",,http://www.hmdb.org/m.asp?m=24959
24963,15009,XI Chapter Kappa Alpha Order,,,1983,Texas Historical Commission,30.63573,-97.66781,,Georgetown,Williamson County,Texas,"Marker is at the intersection of McKenzie Drive and Maple Street, on the right when traveling east on McKenzie Drive. ",,http://www.hmdb.org/m.asp?m=24963
25031,5568,Tunnel of the Fredericksburg & Northern Railway,,,1978,Texas Historical Commission,30.10154,-98.82082,10619 Old San Antonio Rd,Bankersmith,Kendall County,Texas,Marker can be reached from the intersection of Old San Antonio Road and Alamo Road. ,,http://www.hmdb.org/m.asp?m=25031
25033,13604,"Post Oak Island Lodge #181, A.F. & A.M.",,,2006,Texas Historical Commission,30.44335,-97.2438,,Elgin,Williamson County,Texas,"Marker is on County Road 480 near Farm to Market Rd, on the right when traveling east. ",,http://www.hmdb.org/m.asp?m=25033
25036,13874,H. C. Craig Bulding,,,1990,Texas Historical Commission,30.63746,-97.67767,115 W 7th St,Georgetown,Williamson County,Texas,,,http://www.hmdb.org/m.asp?m=25036
25038,13880,Williamson County Courthouse,,,1988,Texas Historical Commission,30.63687,-97.67755,710 South Main Street,Georgetown,Williamson County,Texas,Marker can be reached from South Main Street. ,,http://www.hmdb.org/m.asp?m=25038
25056,13882,Shafer Saddlery,,,1971,The State Historical Survey Committee,30.63701,-97.67687,711 Main St.,Georgetown,Williamson County,Texas,,,http://www.hmdb.org/m.asp?m=25056
25070,14355,First United Methodist Church of Florence,,,2002,Texas Historical Commission,30.83998,-97.79118,300 S Love Ave,Florence,Williamson County,Texas,Marker is at the intersection of E. Curry Street and S. Love Avenue on E. Curry Street. ,,http://www.hmdb.org/m.asp?m=25070
25173,9326,Otto Reinke Building,,,1973,Texas Historical Commission,30.50865,-97.67869,102 E Main Ave,Round Rock,Williamson County,Texas,"Marker is on E, Main Ave near N. Mays St., on the right when traveling west. ",,http://www.hmdb.org/m.asp?m=25173
25174,9331,Round Rock Cemetery,,,1983,Texas Historical Commission,30.51686,-97.69661,,Round Rock,Williamson County,Texas,"Marker can be reached from CR175 (Sam Bass Rd), 0.1 miles east of Clark St. ",,http://www.hmdb.org/m.asp?m=25174
25175,9333,Saints Cyril and Methodius Catholic Church,,,1993,Texas Historical Commission,30.71837,-97.44724,,Granger,Williamson County,Texas,"Marker is on N Brazos St., on the right when traveling north. ",,http://www.hmdb.org/m.asp?m=25175
25177,9335,St. Peters United Church of Christ,,,1989,Texas Historical Commission,30.45767,-97.39099,108 Wathen St,Coupland,Williamson County,Texas,,,http://www.hmdb.org/m.asp?m=25177
25178,9337,Shiloh Baptist Church,,,1968,the State Historical Survey Committee,30.49167,-97.20335,,Taylor,Williamson County,Texas,"Marker is on CR481, on the right when traveling south. ",,http://www.hmdb.org/m.asp?m=25178
25179,9339,Slave Burial Ground in Old Round Rock Cemetery,,,1979,Texas Historical Commission,30.51686,-97.69661,,Round Rock,Williamson County,Texas,Marker can be reached from CR175 (Sam Bass Rd). ,,http://www.hmdb.org/m.asp?m=25179
25180,9360,The Taylor Public Schools,,,1983,Texas Historical Commission,30.57421,-97.4125,305 W 8th St,Taylor,Williamson County,Texas,,,http://www.hmdb.org/m.asp?m=25180
25210,9362,Texan Santa Fe Expedition,,,1970,the State Historical Survey Committee,30.64498,-97.5925,,Georgetown,Williamson County,Texas,"Marker is on SH-29, on the right when traveling west. ",,http://www.hmdb.org/m.asp?m=25210
25212,9364,Town of Thrall,,,1976,Texas Historical Commission,30.5891,-97.29836,,Thrall,Williamson County,Texas,"Marker is on Main St., on the right when traveling south. ",,http://www.hmdb.org/m.asp?m=25212
25215,12307,San Gabriel Park,,,1999,Texas Historical Commission,30.64948,-97.672,,Georgetown,Williamson County,Texas,"Marker can be reached from E Morrow St., 0.1 miles east of Stadium Drive. ",,http://www.hmdb.org/m.asp?m=25215
25217,12700,Site of Gano Community,,,1997,Texas Historical Commission,30.52292,-97.18784,,Thorndale,Williamson County,Texas,Marker can be reached from the intersection of FM-486 and CR-441. ,,http://www.hmdb.org/m.asp?m=25217
25219,13290,Taylor Brethren Church,,,2005,Texas Historical Commission,30.57323,-97.42866,710 Sloan St,Taylor,Williamson County,Texas,,,http://www.hmdb.org/m.asp?m=25219
25250,15115,Union Hall Independent Missionary Baptist Church of Christ,,,1986,Texas Historical Commission,30.64536,-97.86398,301 County Road 259,Liberty Hill,Williamson County,Texas,,,http://www.hmdb.org/m.asp?m=25250
25255,13588,Zion Lutheran Church,,,2006,Texas Historical Commission,30.74256,-97.59907,6001 FM-1105,Walburg,Williamson County,Texas,,,http://www.hmdb.org/m.asp?m=25255
25292,12355,Coronado in Blanco Canyon,,,2000,Texas Historical Commission,33.8921,-101.36001,,Floydada,Floyd County,Texas,"Marker is on US 62, on the left when traveling south. ",,http://www.hmdb.org/m.asp?m=25292
25295,9089,First National Bank of Bartlett,,,1986,Texas Historical Commission,30.79358,-97.42635,206 South Dalton Street,Bartlett,Williamson County,Texas,Marker is on South Dalton Street (County Route 95). ,,http://www.hmdb.org/m.asp?m=25295
25317,13762,Rocky Hollow Cemetery,,,1985,Texas Historical Commission,30.73717,-97.79965,,Andice,Williamson County,Texas,Marker can be reached from the intersection of CR-247 and FM-2338. <font color=red> Reported missing.</font>,Confirmed Missing,http://www.hmdb.org/m.asp?m=25317
25319,13875,Williamson County Sun,,,1978,Texas Historical Commission,30.63731,-97.67701,709 S Main St,Georgetown,Williamson County,Texas,,,http://www.hmdb.org/m.asp?m=25319
25322,13896,Southwestern University,,,1973,Texas Historical Commission,30.63337,-97.66516,,Georgetown,Williamson County,Texas,"Marker is at the intersection of TX-29 (E University Ave) and Vine St., on the right when traveling west on TX-29 (E University Ave). ",,http://www.hmdb.org/m.asp?m=25322
25397,9293,Site of Loafer's Glory Apostolic Church,,,1994,Texas Historical Commission,30.74079,-97.8974,,Andice,Williamson County,Texas,Marker can be reached from the intersection of County Road 207 and County Road 202. ,,http://www.hmdb.org/m.asp?m=25397
25399,9309,Site of Neusser (Naizerville),,,1992,Texas Historical Commission,30.6848,-97.54513,7760 Farm To Market Road,Georgetown,Williamson County,Texas,"Marker is on Farm To Market Road (County Road 971) east of County Road 156, on the right when traveling east. ",,http://www.hmdb.org/m.asp?m=25399
25417,9310,"Site of New Bern Church, School, and Cemetery",,,1993,Texas Historical Commission,30.62976,-97.32785,,Taylor,Williamson County,Texas,"Marker is on County Road 414, on the right when traveling east. ",,http://www.hmdb.org/m.asp?m=25417
25418,9312,Norman's Crossing,,,1982,Texas Historical Commission,30.49493,-97.49777,,Hutto,Williamson County,Texas,"Marker is at the intersection of FM-1660 and CR-129, on the right when traveling east on FM-1660. ",,http://www.hmdb.org/m.asp?m=25418
25419,9317,Palm Valley Lutheran Church,,,1970,Texas Historical Commission,30.52215,-97.64582,2500 E Palm Valley Blvd,Round Rock,Williamson County,Texas,,,http://www.hmdb.org/m.asp?m=25419
25421,9361,The Tenth Street United Methodist Church,,,1976,Texas Historical Commission,30.57587,-97.41447,410 W 10th St,Taylor,Williamson County,Texas,,,http://www.hmdb.org/m.asp?m=25421
25423,12302,Site of Marshall-Carver High School,,,1999,Texas Historical Commission,30.64177,-97.68179,,Georgetown,Williamson County,Texas,"Marker is on Scenic Dr., on the right when traveling west. ",,http://www.hmdb.org/m.asp?m=25423
25424,12304,Mount Arie (Mount Ararat) Missionary Baptist Church,,,1999,Texas Historical Commission,30.79309,-97.43587,529 South Bowie Street,Bartlett,Williamson County,Texas,Marker is on South Bowie Street. ,,http://www.hmdb.org/m.asp?m=25424
25459,12867,Weir Community Cemetery,,,2002,Texas Historical Commission,30.66258,-97.58246,,Weir,Williamson County,Texas,Marker can be reached from County Road 120. ,,http://www.hmdb.org/m.asp?m=25459
25469,12918,Site of Moravia School,,,2003,Texas Historical Commission,30.6867,-97.39864,,Granger,Williamson County,Texas,Marker can be reached from County Road 389 near County Road 390. ,,http://www.hmdb.org/m.asp?m=25469
25503,13923,St. John’s United Methodist Church,,,1983,Texas Historical Commission,30.63325,-97.67478,301 E University Ave,Georgetown,Williamson County,Texas,"Marker is on University Avenue (State Highway 29) east of Myrtle Street, on the right when traveling west. ",,http://www.hmdb.org/m.asp?m=25503
25504,9112,Jolly Cemetery,,,1986,Texas Historical Commission,30.43239,-97.77588,8600 Spicewood Springs Rd,Jollyville,Williamson County,Texas,Marker is at the intersection of Spicewood Springs Road and Queens Way on Spicewood Springs Road. ,,http://www.hmdb.org/m.asp?m=25504
25505,9258,Lawrence Chapel Cemetery,,,1970,Texas Historical Commission,30.48731,-97.23746,,Thrall,Williamson County,Texas,Marker can be reached from County Road 473 north of County Road 477. <font color=red> Reported missing.</font>,Reported Missing,http://www.hmdb.org/m.asp?m=25505
25506,9336,Saul Cemetery,,,1982,Texas Historical Commission,30.50031,-97.51178,,Hutto,Williamson County,Texas,"Marker is on Farm to Market Road 1660, on the right when traveling west. ",,http://www.hmdb.org/m.asp?m=25506
25507,9366,Tucker-Smith House,,,1991,Texas Historical Commission,30.57309,-97.41624,516 W 7th St,Taylor,Williamson County,Texas,,,http://www.hmdb.org/m.asp?m=25507
25510,9372,Young House,,,1991,Texas Historical Commission,30.71705,-97.43813,532 E Davilla St,Granger,Williamson County,Texas,"Marker is on E Davilla Street (Farm to Market Road 971) near North Gabriel Street, on the right when traveling east. ",,http://www.hmdb.org/m.asp?m=25510
25511,12309,Type Cemetery,,,1998,Texas Historical Commission,30.43573,-97.33138,1300 CR-466,Elgin,Williamson County,Texas,,,http://www.hmdb.org/m.asp?m=25511
25547,13070,Preslar-Hewitt Building,,,2004,Texas Historical Commission,30.57049,-97.40967,321 N Main St.,Taylor,Williamson County,Texas,"Marker is at the intersection of Main Street and 4th Street, on the right when traveling south on Main Street. ",,http://www.hmdb.org/m.asp?m=25547
25548,14481,Williamson County Jail,,,1965,the State Historical Survey Committee,30.64025,-97.67754,312 S Main St,Georgetown,Williamson County,Texas,Marker is on West 4th Street near Main Street. ,,http://www.hmdb.org/m.asp?m=25548
25554,15002,William Cornelius Dalrymple,"(August 3, 1814 – March 29, 1898)",,1994,Texas Historical Commission,30.62475,-97.67609,200 E 20th St.,Georgetown,Williamson County,Texas,,,http://www.hmdb.org/m.asp?m=25554
25555,15206,Wilson Springs Cemetery,,,1988,Texas Historical Commission,30.59578,-97.46329,,Taylor,Williamson County,Texas,"Marker is on County Road 369, 1 mile west of County Road 366. ",,http://www.hmdb.org/m.asp?m=25555
25587,15479,O. Henry Hall,The University of Texas System,,1974,Texas Historical Commission,30.26855,-97.74397,601 Colorado Street,Austin,Travis County,Texas,"Marker is on Colorado Street north of West 6th Street, on the right when traveling north. ",,http://www.hmdb.org/m.asp?m=25587
25590,15486,St. Martin’s Evangelical Lutheran Church,,,1979,Texas Historical Commission,30.27559,-97.73931,,Austin,Travis County,Texas,"Marker can be reached from the intersection of Congress Avenue and East 14th Street, on the right. ",,http://www.hmdb.org/m.asp?m=25590
25595,15538,John Litton,,,1936,State of Texas,30.26529,-97.72751,909 Navasota Street,Austin,Travis County,Texas,Marker can be reached from Navasota Street near East 10th Street. ,,http://www.hmdb.org/m.asp?m=25595
25599,15644,Scottish Rite Temple,,,1967,State Historical Survey Committee,30.28005,-97.74044,207 W 18th Street,Austin,Travis County,Texas,"Marker is on West 18th Street west of Colorado Street, on the left when traveling west. ",,http://www.hmdb.org/m.asp?m=25599
25624,13458,Texas School for the Deaf,,,2006,Texas Historical Commission,30.25445,-97.74795,1102 S Congress Avenue,Austin,Travis County,Texas,"Marker is on Congress Avenue south of East Riverside Drive, on the right when traveling south. ",,http://www.hmdb.org/m.asp?m=25624
25629,13542,Bohls House,,,2005,Texas Historical Commission,30.44225,-97.60683,901 Old Austin Hutto Road,Pflugerville,Travis County,Texas,"Marker is on Heritage Loop Trail north of Firebush Drive, on the right when traveling north. ",,http://www.hmdb.org/m.asp?m=25629
25630,13620,Norwood Tower,,,2006,Texas Historical Commission,30.26932,-97.74325,114 W 7th Street,Austin,Travis County,Texas,"Marker is on West 7th Street west of Colorado Street, on the left when traveling east. ",,http://www.hmdb.org/m.asp?m=25630
25631,13778,Del Valle Army Air Base,(Bergstrom Air Force Base),,2005,Texas Historical Commission,30.21214,-97.66382,,Austin,Travis County,Texas,"Marker is on Hotel Drive south of Spirit of Texas Drive, on the right when traveling south. ",,http://www.hmdb.org/m.asp?m=25631
25632,13859,Randerson-Lundell Building,,,1994,Texas Historical Commission,30.26604,-97.73601,701 E 6th Street,Austin,Travis County,Texas,"Marker is on East 6th Street east of Sabine Street, on the right when traveling east. ",,http://www.hmdb.org/m.asp?m=25632
25633,13928,Central Presbyterian Church,,,1988,Texas Historical Commission,30.2695,-97.74027,200 E 8th Street,Austin,Travis County,Texas,"Marker is on East 8th Street west of San Jacinto Boulevard, on the right when traveling west. ",,http://www.hmdb.org/m.asp?m=25633
25634,13931,Driskill Hotel,,,1966,Texas Historical Commission,30.26804,-97.74135,604 Brazos Street,Austin,Travis County,Texas,"Marker is on Brazos Street south of East 7th Street, on the right when traveling south. ",,http://www.hmdb.org/m.asp?m=25634
25647,13935,First Classes of the University of Texas Law School,,,1983,Texas Historical Commission,30.27249,-97.74153,,Austin,Travis County,Texas,Marker can be reached from the intersection of 11th Street and Congress Avenue. ,,http://www.hmdb.org/m.asp?m=25647
25648,14191,Original Site of First Baptist Church of Austin,,,1985,Texas Historical Commission,30.27213,-97.74276,,Austin,Travis County,Texas,"Marker is at the intersection of W 10th Street and Colorado Street, on the right when traveling west on W 10th Street. ",,http://www.hmdb.org/m.asp?m=25648
25650,14277,Thomas Jones Hardeman,,,1936,State of Texas,30.26524,-97.72723,909 Navasota St,Austin,Travis County,Texas,Marker can be reached from Navasota Street north of East 7th Street. ,,http://www.hmdb.org/m.asp?m=25650
25661,14309,Oakwood Cemetery,,,1972,Texas Historical Commission,30.27628,-97.72822,1601 Navasota Street,Austin,Travis County,Texas,Marker can be reached from Navasota Street near East 15th Street. ,,http://www.hmdb.org/m.asp?m=25661
25665,14416,Decker United Methodist Church and Community,,,1973,Texas Historical Commission,30.30951,-97.61617,8304 Decker Lane,Austin,Travis County,Texas,"Marker is on Route 3177 south of Daffan Lane, on the right when traveling south. ",,http://www.hmdb.org/m.asp?m=25665
25666,14473,Daniel Shipman,,,1936,State of Texas,30.26524,-97.72733,909 Navasota Street,Austin,Travis County,Texas,"Marker can be reached from Navasota Street north of East 7th Street, on the right when traveling north. ",,http://www.hmdb.org/m.asp?m=25666
25669,14668,Denny-Holliday House,,,1978,Texas Historical Commission,30.28225,-97.74596,1803 West Avenue,Austin,Travis County,Texas,"Marker is on West Avenue north of West 18th Street, on the right when traveling north. ",,http://www.hmdb.org/m.asp?m=25669
25671,14680,Swedish Consulate and Swante Palm Library,,,1991,Texas Historical Commission,30.27058,-97.74206,816 Congress Avenue,Austin,Travis County,Texas,"Marker is at the intersection of Congress Avenue and East 9th Street, on the right when traveling south on Congress Avenue. ",,http://www.hmdb.org/m.asp?m=25671
25672,14700,Henry G. Madison Cabin,,,1974,Texas Historical Commission,30.2722,-97.714,2300 Rosewood Avenue,Austin,Travis County,Texas,Marker can be reached from North Pleasant Valley Road north of Rosewood Avenue. ,,http://www.hmdb.org/m.asp?m=25672
25674,14858,West-Bremond Cottage,,,1976,Texas Historical Commission,30.27022,-97.74821,607 Nueces Street,Austin,Travis County,Texas,"Marker is on Nueces Street south of West 7th Street, on the right when traveling south. ",,http://www.hmdb.org/m.asp?m=25674
25676,14871,Captain Andrew Briscoe,,,1936,State of Texas,30.26522,-97.72738,,Austin,Travis County,Texas,"Marker can be reached from Navasota Street north of East 7th Street, on the right when traveling north. ",,http://www.hmdb.org/m.asp?m=25676
25677,14891,Philip Walker,,,1936,State of Texas,30.26531,-97.72732,909 Navasota Street,Austin,Travis County,Texas,"Marker can be reached from Navasota Street north of East 7th Street, on the right when traveling north. ",,http://www.hmdb.org/m.asp?m=25677
25679,14898,Thompson Home,,,1978,Texas Historical Commission,30.27023,-97.72593,1171 San Bernard Street,Austin,Travis County,Texas,"Marker is on San Bernard Street north of Hackberry Street, on the right when traveling north. ",,http://www.hmdb.org/m.asp?m=25679
25681,14936,Sweetbrush,The Swisher-Scott House,,1962,Texas Historical Commission,30.303,-97.77793,2408 Sweetbrush Drive,Austin,Travis County,Texas,"Marker is on Sweetbrush Drive west of Rockmoor Avenue, on the right when traveling west. ",,http://www.hmdb.org/m.asp?m=25681
25682,14948,Andrew Jackson Hamilton,"January 28, 1815 – April 11, 1875",,1994,Texas Historical Commission,30.27577,-97.72713,1601 Navasota Street,Austin,Travis County,Texas,"Marker can be reached from Navasota Street north of East 14th Street, on the right when traveling north. ",,http://www.hmdb.org/m.asp?m=25682
25684,15026,The Woman Suffrage Movement in Texas,,,1991,Texas Historical Commission,30.27245,-97.74103,,Austin,Travis County,Texas,"Marker is at the intersection of Congress Avenue and W 11th Street, on the right when traveling north on Congress Avenue. ",,http://www.hmdb.org/m.asp?m=25684
25685,15031,Mount Olive Baptist Church,,,1991,Texas Historical Commission,30.26641,-97.7212,1800 E 11th Street,Austin,Travis County,Texas,"Marker is on East 11st Street west of Chicon Street, on the right when traveling west. ",,http://www.hmdb.org/m.asp?m=25685
25688,15050,Bailey Hardeman,,,1936,State of Texas,30.26529,-97.72724,909 Navasota Street,Austin,Travis County,Texas,"Marker can be reached from Navasota Street north of East 7th Street, on the right when traveling north. ",,http://www.hmdb.org/m.asp?m=25688
25690,15075,John Edward Lewis,,,1936,State of Texas,30.26524,-97.72718,909 Navasota Street,Austin,Travis County,Texas,"Marker can be reached from Navasota Street north of East 7th Street, on the right when traveling north. ",,http://www.hmdb.org/m.asp?m=25690
25691,15110,Las Ventanas,,,1967,State Historical Survey Committee,30.27354,-97.75765,602 Harthan Street,Austin,Travis County,Texas,"Marker is on Harthan Street north of West 6th Street, on the left when traveling north. ",,http://www.hmdb.org/m.asp?m=25691
25693,15113,Gen. George W. Terrell,,,1936,State of Texas,30.27643,-97.72821,1601 Navasota Street,Austin,Travis County,Texas,"Marker can be reached from the intersection of Navasota Street and East 16th Street, on the right when traveling north. ",,http://www.hmdb.org/m.asp?m=25693
25695,15196,Philquist-Wood House,,,2003,Texas Historical Commission,30.3027,-97.72956,4007 Avenue G,Austin,Travis County,Texas,"Marker is on Avenue G north of East 40th Street, on the right when traveling north. ",,http://www.hmdb.org/m.asp?m=25695
25696,15300,Capt. and Mrs. Chauncey Johnson,,,1936,State of Texas,30.26521,-97.7273,909 Navasota Street,Austin,Travis County,Texas,"Marker can be reached from Navasota Street north of East 7th Street, on the right when traveling north. ",,http://www.hmdb.org/m.asp?m=25696
25697,15335,Andrew Jackson Zilker,,,2003,Texas Historical Commission,30.26417,-97.77091,,Austin,Travis County,Texas,"Marker can be reached from William Barton Drive west of Andrew Zilker Road, on the left when traveling west. ",,http://www.hmdb.org/m.asp?m=25697
25698,6421,Wahrenberger House,,,1963,State Historical Survey Committee,30.27654,-97.74193,208 W 14th Street,Austin,Travis County,Texas,"Marker is on West 14th Street west of Colorado Street, on the right when traveling west. ",,http://www.hmdb.org/m.asp?m=25698
25699,6427,Zachary Taylor Fulmore,"(Nov. 11, 1846 - June 23, 1923)",,1967,State Historical Survey Committee,30.27402,-97.7444,1000 Guadalupe Street,Austin,Travis County,Texas,"Marker is on Guadalupe Street south of West 12th Street, on the right when traveling south. ",,http://www.hmdb.org/m.asp?m=25699
25700,6438,Goodman Building,,,1969,Texas Historical Commission,30.27567,-97.74219,1300 Colorado Street,Austin,Travis County,Texas,"Marker is on West 13th Street west of Colorado Street, on the right when traveling west. ",,http://www.hmdb.org/m.asp?m=25700
25701,6442,Ashford McGill House,Zilker Park Refectory,,1990,Texas Historical Commission,30.27243,-97.77497,301 Nature Center Dr,Austin,Travis County,Texas,"Marker can be reached from Nature Center Drive south of Stratford Drive, on the right when traveling south. ",,http://www.hmdb.org/m.asp?m=25701
25702,6444,Green Pastures,,,1976,Texas Historical Commission,30.24553,-97.76186,811 W Live Oak Street,Austin,Travis County,Texas,"Marker can be reached from West Live Oak Street near Bouldin Avenue, on the left when traveling west. ",,http://www.hmdb.org/m.asp?m=25702
25703,6448,The Johnson Home,,,1966,State Historical Survey Committee,30.27672,-97.77145,2201 1/2 Veterans Drive,Austin,Travis County,Texas,"Marker is on Veterans Drive west of Atlanta Street, on the right when traveling north. ",,http://www.hmdb.org/m.asp?m=25703
25705,6449,Austin High School,A Centennial of Public High School Education,,1981,Texas Historical Commission,30.27327,-97.76651,1715 West Cesar Chavez Street,Austin,Travis County,Texas,"Marker can be reached from West Cesar Chavez Street north of Stephen F Austin Drive, on the left when traveling north. ",,http://www.hmdb.org/m.asp?m=25705
25706,6452,Fischer House,,,1982,Texas Historical Commission,30.27485,-97.74902,1008 West Avenue,Austin,Travis County,Texas,"Marker can be reached from the intersection of West Avenue and West 11th Street, on the left when traveling north. ",,http://www.hmdb.org/m.asp?m=25706
25707,6455,Goodall Wooten House,,,1990,Texas Historical Commission,30.28284,-97.74516,1900 Rio Grande Street,Austin,Travis County,Texas,"Marker is at the intersection of East Martin Luther King Jr. Boulevard and Rio Grande Street, on the right when traveling west on East Martin Luther King Jr. Boulevard. ",,http://www.hmdb.org/m.asp?m=25707
25709,6459,Herblin – Shoe House,,,1987,Texas Historical Commission,30.2801,-97.74667,712 W 16th Street,Austin,Travis County,Texas,"Marker is at the intersection of West 16th Street and West Avenue, on the right when traveling west on West 16th Street. ",,http://www.hmdb.org/m.asp?m=25709
25710,6460,The Texas Federation of Women’s Clubs Headquarters,,,1986,Texas Historical Commission,30.28778,-97.74807,2312 San Gabriel Street,Austin,Travis County,Texas,"Marker is on San Gabriel south of West 24th Street, on the right when traveling south. ",,http://www.hmdb.org/m.asp?m=25710
25712,6469,Eanes School and Chapel,,,1975,Texas Historical Commission,30.28211,-97.81189,,Westlake Hills,Travis County,Texas,"Marker is on Camp Craft Road north of Eanes School Road, on the left when traveling north. ",,http://www.hmdb.org/m.asp?m=25712
25714,12241,Decker Swedish Evangelical Free Church and Cemetery,,,1997,Texas Historical Commission,30.33032,-97.60346,10309 Decker Ln,Austin,Travis County,Texas,"Marker is on Decker Lane north of Harris Branch Parkway, on the right when traveling north. ",,http://www.hmdb.org/m.asp?m=25714
25715,12246,Texas Dental Association,,,1997,Texas Historical Commission,30.23858,-97.73903,1946 S IH-35,Austin,Travis County,Texas,"Marker is on South IH 35 Frontage Road south of Woodlawn Avenue, on the right when traveling south. ",,http://www.hmdb.org/m.asp?m=25715
25717,12247,Texas Highway Department,"(Established April 4, 1917)",,1997,Texas Historical Commission,30.27243,-97.74039,125 E 11th Street,Austin,Travis County,Texas,"Marker is on East 11th Street west of Brazos Street, on the right when traveling east. ",,http://www.hmdb.org/m.asp?m=25717
25718,12249,Major William Martin “Buck” Walton,"January 17, 1832 – July 1, 1915",,1999,Texas Historical Commission,30.27536,-97.72817,1601 Navasota Street,Austin,Travis County,Texas,Marker can be reached from the intersection of Navasota Street and East 15th Street. ,,http://www.hmdb.org/m.asp?m=25718
25719,12251,Webberville,,,1997,Texas Historical Commission,30.22564,-97.51401,,Webberville,Travis County,Texas,Marker can be reached from Weber Street west of Route 969 when traveling west. ,,http://www.hmdb.org/m.asp?m=25719
25728,12693,Texas and the Civil War,Secession Convention,,1965,State Historical Survey Committee,30.27416,-97.73854,1201 Brazos Street,Austin,Travis County,Texas,"Marker is at the intersection of Brazos Street and East 13th Street, on the left when traveling south on Brazos Street. ",,http://www.hmdb.org/m.asp?m=25728
25731,12733,Scarbrough Building,,,2001,Texas Historical Commission,30.26795,-97.74303,,Austin,Travis County,Texas,"Marker is at the intersection of Congress Avenue and West 6th Street, on the right when traveling south on Congress Avenue. ",,http://www.hmdb.org/m.asp?m=25731
25733,13141,Stephen F. Austin Hotel,,,2002,Texas Historical Commission,30.26906,-97.74208,701 Congress Avenue,Austin,Travis County,Texas,"Marker is on East 7th Street east of Congress Avenue, on the left when traveling east. ",,http://www.hmdb.org/m.asp?m=25733
25734,13153,Site of John Bremond & Company,,,2003,Texas Historical Commission,30.26767,-97.74175,115 E 6th Street,Austin,Travis County,Texas,"Marker is at the intersection of East 6th Street and Brazos Street, on the left when traveling west on East 6th Street. ",,http://www.hmdb.org/m.asp?m=25734
25735,15472,Site of Tenth Street Methodist Church,,,1979,the State Historical Survey Committee,30.27156,-97.73983,208 E 10th Street,Austin,Travis County,Texas,"Marker is at the intersection of East 10th Street and Brazos Street, on the right when traveling west on East 10th Street. ",,http://www.hmdb.org/m.asp?m=25735
25736,15519,Immanuel Evangelical Lutheran Church,,,1974,Texas Historical Commission,30.43136,-97.6141,500 Immanuel Road,Pflugerville,Travis County,Texas,"Marker can be reached from Immanuel Road south of Gatlinburg Drive, on the right when traveling south. ",,http://www.hmdb.org/m.asp?m=25736
25738,15533,James G. Wilkinson,,,1936,State of Texas,30.26529,-97.72738,909 Navasota Street,Austin,Travis County,Texas,"Marker can be reached from Navasota Street north of East 7th Street, on the right when traveling north. ",,http://www.hmdb.org/m.asp?m=25738
25739,15593,Site of the Headquarters of the United States Army for 5th Military District,,,1936,State of Texas,30.26058,-97.74149,,Austin,Travis County,Texas,Marker can be reached from Trinty Street south of East Cesar Chavez Street when traveling south. ,,http://www.hmdb.org/m.asp?m=25739
25740,15620,Barr Mansion,,,1983,Texas Historical Commission,30.35189,-97.64727,10463 Sprinkle Road,Austin,Travis County,Texas,"Marker is at the intersection of Sprinkle Road and Springdale Road, on the right when traveling east on Sprinkle Road. ",,http://www.hmdb.org/m.asp?m=25740
25742,12238,Addcox House,,,1999,Texas Historical Commission,30.29495,-97.72375,900 E 37th Street,Austin,Travis County,Texas,"Marker is at the intersection of East 37th Street and Red River Street, on the right when traveling west on East 37th Street. ",,http://www.hmdb.org/m.asp?m=25742
25746,13929,African Americans in the Texas Revolution,,,1994,Texas Historical Commission,30.27257,-97.74138,,Austin,Travis County,Texas,"Marker can be reached from the intersection of Congress Avenue and West 11th Street, on the left when traveling south. ",,http://www.hmdb.org/m.asp?m=25746
25747,15108,All Saints’ Episcopal Church,,,1975,Texas Historical Commission,30.29178,-97.73991,,Austin,Travis County,Texas,"Marker is on West 27th Street west of University Avenue, on the left when traveling west. ",,http://www.hmdb.org/m.asp?m=25747
25753,15360,Austin High School,John T. Allan Campus,,1981,Texas Historical Commission,30.27027,-97.73802,901 Trinity Street,Austin,Travis County,Texas,"Marker is on Trinity Street north of East 9th Street, on the right when traveling north. ",,http://www.hmdb.org/m.asp?m=25753
25755,6416,Austin High School,Rio Grande Campus,,1981,Texas Historical Commission,30.27593,-97.74745,,Austin,Travis County,Texas,"Marker can be reached from the intersection of Rio Grande Street and West 12th Street, on the left when traveling north. ",,http://www.hmdb.org/m.asp?m=25755
25757,6425,1933 Austin Public Library,,,1993,Texas Historical Commission,30.27178,-97.74587,810 Guadalupe Street,Austin,Travis County,Texas,"Marker is on West 9th Street east of San Antonio Street, on the right when traveling east. ",,http://www.hmdb.org/m.asp?m=25757
25758,15648,Austin State Hospital,,,1966,State Historical Survey Committee,30.30745,-97.73717,4110 Guadalupe Street,Austin,Travis County,Texas,"Marker can be reached from Guadalupe Street south of West 42nd Street, on the right when traveling south. ",,http://www.hmdb.org/m.asp?m=25758
25759,6430,Austin Woman’s Club,,,1965,State Historical Survey Committee,30.27108,-97.74686,708 San Antonio Street,Austin,Travis County,Texas,"Marker is at the intersection of San Antonio Street and West 8th Street, on the right when traveling south on San Antonio Street. ",,http://www.hmdb.org/m.asp?m=25759
25760,15306,Willis Avery,,,1936,State of Texas,30.26535,-97.72744,909 Navasota Street,Austin,Travis County,Texas,"Marker can be reached from the intersection of Navasota Street and East 8th Street, on the right when traveling north. ",,http://www.hmdb.org/m.asp?m=25760
25765,14984,General Moseley Baker,,,1936,State of Texas,30.26526,-97.72721,909 Navasota Street,Austin,Travis County,Texas,"Marker can be reached from Navasota Street north of East 7th Street, on the right when traveling north. ",,http://www.hmdb.org/m.asp?m=25765
25767,14153,Joseph Baker,,,1936,State of Texas,30.27507,-97.72826,1601 Navasota Street,Austin,Travis County,Texas,"Marker can be reached from Navasota Street north of East 15th Street, on the right when traveling north. ",,http://www.hmdb.org/m.asp?m=25767
25770,6443,Barton Springs,,,1970,State Historical Survey Committee,30.26418,-97.77093,,Austin,Travis County,Texas,"Marker can be reached from William Barton Drive west of Andrew Zilker Road, on the right when traveling east. ",,http://www.hmdb.org/m.asp?m=25770
25774,12240,Bethany Cemetery,,,1997,Texas Historical Commission,30.28037,-97.6863,1300 Springdale Road,Austin,Travis County,Texas,"Marker is on Springdale Road south of Ribbecke Avenue, on the right when traveling south. ",,http://www.hmdb.org/m.asp?m=25774
25775,14985,Capt. Jesse Billingsley,,,1936,State of Texas,30.26519,-97.72707,909 Navasota Street,Austin,Travis County,Texas,"Marker can be reached from Navasota Street north of East 7th Street, on the right when traveling north. ",,http://www.hmdb.org/m.asp?m=25775
25776,12825,Blackshear Elementary School,,,2001,Texas Historical Commission,30.2666,-97.72206,1712 E 11th Street,Austin,Travis County,Texas,"Marker can be reached from East 11th Street west of Salina Street, on the right when traveling west. ",,http://www.hmdb.org/m.asp?m=25776
25777,15114,Bloor House,,,1982,Texas Historical Commission,30.34657,-97.55673,10 Lexington Street,Manor,Travis County,Texas,"Marker is on Lexington Street south of East Lane Avenue, on the right when traveling south. ",,http://www.hmdb.org/m.asp?m=25777
25778,14502,The Boardman-Webb House,,,1979,Texas Historical Commission,30.2725,-97.74759,602 W 9th St,Austin,Travis County,Texas,"Marker is on West 9th Street just west of Nueces, on the right when traveling west. ",,http://www.hmdb.org/m.asp?m=25778
25779,15416,Brackenridge Hospital,,,1984,Texas Historical Commission,30.27482,-97.73376,601 E 15th Street,Austin,Travis County,Texas,"Marker can be reached from the intersection of East 15th Street and Red River Street, on the right when traveling east. ",,http://www.hmdb.org/m.asp?m=25779
25780,6453,Brizendine House,,,1974,Texas Historical Commission,30.27405,-97.74628,507 W 11th Street,Austin,Travis County,Texas,"Marker is on West 11th Street east of Nueces Street, on the right when traveling east. ",,http://www.hmdb.org/m.asp?m=25780
25781,14635,J. L. Buaas Building,,,1983,Texas Historical Commission,30.26689,-97.73896,407 E 6th Street,Austin,Travis County,Texas,"Marker is on East 6th Street east of Trinity Street, on the right when traveling east. ",,http://www.hmdb.org/m.asp?m=25781
25789,13232,Buddington-Benedict-Sheffield Compound,,,2004,Texas Historical Commission,30.30026,-97.73918,500-508 W 34th Street,Austin,Travis County,Texas,"Marker is on West 34th Street west of Fruth Street, on the right when traveling west. ",,http://www.hmdb.org/m.asp?m=25789
25790,15258,Buen Retiro,,,1972,Texas Historical Commission,30.29218,-97.74069,300 W 27th Street,Austin,Travis County,Texas,"Marker is on West 27th Street just west of Whitis Avenue, on the right when traveling west. ",,http://www.hmdb.org/m.asp?m=25790
25791,6465,Camp Mabry,,,1972,State Historical Survey Committee,30.30987,-97.75953,2210 W. 35th Street,Austin,Travis County,Texas,"Marker can be reached from the intersection of West 35th Street and Main Street, on the right when traveling west. ",,http://www.hmdb.org/m.asp?m=25791
25792,6423,Carrington-Covert House,,,1972,Texas Historical Commission,30.27801,-97.74053,1511 Colorado Street,Austin,Travis County,Texas,"Marker is on Colorado Street near West 16th Street, on the right when traveling north. ",,http://www.hmdb.org/m.asp?m=25792
25793,14088,George Washington Carver Branch Library,,,1977,Texas Historical Commission,30.2699,-97.72448,1165 Angelina St,Austin,Travis County,Texas,"Marker is on Angelina Street just south of Hackberry Street, on the right when traveling north. ",,http://www.hmdb.org/m.asp?m=25793
25795,13847,Lilia and Josephine Casis,,,1994,Texas Historical Commission,30.3047,-97.76492,2710 Exposition Boulevard,Austin,Travis County,Texas,"Marker is on Exposition Boulevard south of Northwood Road, on the right when traveling south. ",,http://www.hmdb.org/m.asp?m=25795
25796,6454,Daniel H. Caswell House,,,1984,Texas Historical Commission,30.27895,-97.74742,1404 West Avenue,Austin,Travis County,Texas,"Marker is on West Avenue near 15th Street, on the right when traveling south. ",,http://www.hmdb.org/m.asp?m=25796
25797,13210,Cementerio Mexicano de Maria de la Luz,,,2004,Texas Historical Commission,30.18658,-97.77954,7200 Circle S Road,Austin,Travis County,Texas,"Marker is on Circle S Road near Corral Lane, on the right when traveling south. ",,http://www.hmdb.org/m.asp?m=25797
25798,6417,Central Christian Church,,,1985,Texas Historical Commission,30.2746,-97.7442,1110 Guadalupe Street,Austin,Travis County,Texas,"Marker is on Guadalupe Street near West 12th Street, on the right when traveling south. ",,http://www.hmdb.org/m.asp?m=25798
25800,14494,Clarksville,,,1973,Texas Historical Commission,30.28138,-97.76244,1725 W 11th Street,Austin,Travis County,Texas,"Marker is on West 11th Street near West 12th Street, on the right when traveling east. ",,http://www.hmdb.org/m.asp?m=25800
25823,13094,Price Daniel,,,2004,Texas Historical Commission,30.27645,-97.74207,209 West 14th Street,Austin,Travis County,Texas,"Marker is on West 14th Street east of Lavaca Street, on the right when traveling east. ",,http://www.hmdb.org/m.asp?m=25823
25824,13934,Governor Edmund Jackson Davis,"October 2, 1827 – February 7, 1883",,1976,Texas Historical Commission,30.2723,-97.74161,,Austin,Travis County,Texas,"Marker can be reached from the intersection of Congress Avenue and West 11th Street, on the right when traveling south. ",,http://www.hmdb.org/m.asp?m=25824
25825,14170,Old I.V. Davis Homestead,,,1968,State Historical Survey Committee,30.26192,-97.76332,1610 Virginia Avenue,Austin,Travis County,Texas,"Marker can be reached from Virginia Avenue west of Meghan Lane, on the right when traveling west. ",,http://www.hmdb.org/m.asp?m=25825
25849,15158,Susanna W. Dickinson,(1814-1883),,1993,Texas Historical Commission,30.2754,-97.72666,1601 Navasota Street,Austin,Travis County,Texas,"Marker can be reached from East 14th Street west of Comal Street, on the right when traveling west. ",,http://www.hmdb.org/m.asp?m=25849
25851,14242,J. Frank Dobie House,,,1991,Texas Historical Commission,30.28923,-97.73252,702 E Dean Keeton Street,Austin,Travis County,Texas,"Marker is at the intersection of East Dean Keeton Street and Park Place, on the right when traveling west on East Dean Keeton Street. ",,http://www.hmdb.org/m.asp?m=25851
25852,15328,Doyle Farm,,,1974,Texas Historical Commission,30.2214,-97.75011,,Austin,Travis County,Texas,"Marker can be reached from Interstate 35 Frontage Road south of Woodward Street, on the right when traveling south. ",,http://www.hmdb.org/m.asp?m=25852
25854,6470,Eanes Cemetery,,,1986,Texas Historical Commission,30.28196,-97.8117,,Westlake Hills,Travis County,Texas,"Marker can be reached from Eanes School Road, 0.1 miles west of Camp Craft Road. ",,http://www.hmdb.org/m.asp?m=25854
25858,14281,Richard Ellis,,,1936,State of Texas,30.2654,-97.72739,909 Navasota Street,Austin,Travis County,Texas,Marker can be reached from Navasota Street north of East 7th Street. ,,http://www.hmdb.org/m.asp?m=25858
25872,14303,Evangelical Lutheran Church of Dessau,,,1984,Texas Historical Commission,30.40192,-97.63964,13300 Dessau Road,Austin,Travis County,Texas,"Marker can be reached from Dessau Road south of East Howard Lane, on the right when traveling south. ",,http://www.hmdb.org/m.asp?m=25872
25874,14797,"Governor James Edward Ferguson <small> August 31, 1871 -September 21, 1944</small>","Governor Miriam A. Ferguson <small>June 13, 1875 - June 25, 1961</small>",,1977,Texas Historical Commission,30.27271,-97.74103,,Austin,Travis County,Texas,Marker can be reached from the intersection of W 11th St and Congress Ave. ,,http://www.hmdb.org/m.asp?m=25874
25875,12239,Stanley and Emily Finch House,,,1999,Texas Historical Commission,30.29645,-97.73151,3312 Duval St,Austin,Travis County,Texas,"Marker is at the intersection of Duval Street and East 34th Street, on the right when traveling south on Duval Street. ",,http://www.hmdb.org/m.asp?m=25875
25881,11783,Original Site of First Methodist Church of Austin,,,1978,Texas Historical Commission,30.26633,-97.74327,401 Congress Ave,Austin,Travis County,Texas,"Marker is at the intersection of Congress Avenue and East 4th Street, on the right when traveling north on Congress Avenue. ",,http://www.hmdb.org/m.asp?m=25881
25883,6418,First United Methodist Church of Austin,,,1978,Texas Historical Commission,30.27478,-97.74278,1201 Lavaca Street,Austin,Travis County,Texas,"Marker is on Lavaca Street north of West 12th Street, on the right when traveling north. ",,http://www.hmdb.org/m.asp?m=25883
25884,13095,Fiskville,,,2004,Texas Historical Commission,30.35768,-97.70071,8830 N Lamar Boulevard,Austin,Travis County,Texas,"Marker is at the intersection of Payton Gin Road and North Lamar Boulevard, on the right when traveling east on Payton Gin Road. ",,http://www.hmdb.org/m.asp?m=25884
25888,15014,Dr. Thomas Jefferson Gazley,,,1936,State of Texas,30.2653,-97.7274,909 Navasota Street,Austin,Travis County,Texas,"Marker can be reached from Navasota Street near East 7th Street, on the right when traveling north. ",,http://www.hmdb.org/m.asp?m=25888
25889,15632,Gerhard-Schoch House,,,1974,Texas Historical Commission,30.28643,-97.74395,2212 Nueces Street,Austin,Travis County,Texas,"Marker is at the intersection of Nueces Street and West 23rd Street, on the left when traveling south on Nueces Street. ",,http://www.hmdb.org/m.asp?m=25889
25890,12732,German Free School,,,1962,Texas Historical Commission,30.27024,-97.73627,507 E 10th Street,Austin,Travis County,Texas,"Marker can be reached from the intersection of East 10th Street and Red River Street, on the right when traveling east. ",,http://www.hmdb.org/m.asp?m=25890
25891,14770,Gethsemane Church,,,1962,State Historical Survey Committee,30.27774,-97.73941,1510 Congress Avenue,Austin,Travis County,Texas,"Marker can be reached from the intersection of Congress Avenue and East 16th Street, on the right when traveling south. ",,http://www.hmdb.org/m.asp?m=25891
25893,14373,Gilfillan House,,,1981,Texas Historical Commission,30.2716,-97.74812,603 West 8th Street,Austin,Travis County,Texas,"Marker can be reached from West 8th Street near Nueces Street, on the right when traveling east. ",,http://www.hmdb.org/m.asp?m=25893
25896,14554,Grinninger Fence,,,1969,State Historical Survey Committee,30.26058,-97.74149,,Austin,Travis County,Texas,"Marker can be reached from Trinity Street south of East Cesar Chavez Street, on the right when traveling south. ",,http://www.hmdb.org/m.asp?m=25896
25897,14753,Johann Jacob Groos,Texas Land Commissioner,"March 6, 1822 - June 15, 1878",1974,Texas Historical Commission,30.27473,-97.72758,1601 Navasota Street,Austin,Travis County,Texas,"Marker is at the intersection of Navasota Street and East 14th Street, on the right when traveling north on Navasota Street. ",,http://www.hmdb.org/m.asp?m=25897
25938,14310,Granite for the State Capitol,,,2008,Texas Historical Commission,30.50428,-97.78474,,Cedar Park,Williamson County,Texas,Marker can be reached from Brushy Creek Road (County Road 174). ,,http://www.hmdb.org/m.asp?m=25938
25940,12813,Olson House,,,2001,Texas Historical Commission,30.51098,-97.67068,808 East Main Avenue,Round Rock,Williamson County,Texas,"Marker is on East Main Street near Nelson Street, on the right when traveling west. ",,http://www.hmdb.org/m.asp?m=25940
25943,15064,St. John’s Cemetery,,,2006,Texas Historical Commission,30.58797,-97.65913,,Georgetown,Williamson County,Texas,Marker can be reached from the intersection of County Road 111 and Farm to Market Road (Route 1460). ,,http://www.hmdb.org/m.asp?m=25943
25944,13529,Site of Stony Point School,,,2006,Texas Historical Commission,30.54649,-97.615,,Round Rock,Williamson County,Texas,"Marker is at the intersection of Kiphen Road (County Road 113) and County Road 122, on the right when traveling east on Kiphen Road. ",,http://www.hmdb.org/m.asp?m=25944
25947,9107,Hutto Baptist Church,,,1986,Texas Historical Commission,30.53942,-97.58117,6655 Highway 79,Hutto,Williamson County,Texas,Marker can be reached from East Palm Valley Boulevard (U.S. 79). ,,http://www.hmdb.org/m.asp?m=25947
25949,9109,Hutto United Methodist Church,,,1981,Texas Historical Commission,30.54601,-97.56053,350 Ed Schmidt Boulevard,Hutto,Williamson County,Texas,"Marker can be reached from Ed Schmidt Boulevard (County Route 119), on the right when traveling north. <font color=red> Reported missing.</font>",Reported Missing,http://www.hmdb.org/m.asp?m=25949
25950,15934,Shiloh-McCutcheon Cemetery,,,1999,Texas Historical Commission,30.50222,-97.5352,,Hutto,Williamson County,Texas,Marker can be reached from County Road 163. ,,http://www.hmdb.org/m.asp?m=25950
25954,14990,"George Washington Glasscock, Sr.",,,1936,the State of Texas,30.63687,-97.67748,146 West 8th Street,Georgetown,Williamson County,Texas,"Marker is on West 8th Street, on the right when traveling west. ",,http://www.hmdb.org/m.asp?m=25954
25965,15101,Governor Andrew Jackson Hamilton,The First Republican Governor of Texas,,1978,Texas Historical Commission,30.27258,-97.74103,,Austin,Travis County,Texas,"Marker can be reached from the intersection of East 11th Street and Congress Avenue, on the right when traveling west. ",,http://www.hmdb.org/m.asp?m=25965
25966,6457,Hugh B. Hancock House,,,1981,Texas Historical Commission,30.28165,-97.7463,1717 West Ave,Austin,Travis County,Texas,"Marker is at the intersection of West Avenue and West 18th Street, on the right when traveling north on West Avenue. ",,http://www.hmdb.org/m.asp?m=25966
25969,6441,Hirshfeld Cottage,,,1981,Texas Historical Commission,30.2716,-97.74485,305 West 9th Street,Austin,Travis County,Texas,"Marker is on West 9th Street east of Guadalupe Street, on the right when traveling east. ",,http://www.hmdb.org/m.asp?m=25969
25971,6440,Hirshfeld House,,,1981,Texas Historical Commission,30.27147,-97.74439,303 West 9th Street,Austin,Travis County,Texas,"Marker is at the intersection of West 9th Street and Lavaca Street, on the right when traveling east on West 9th Street. ",,http://www.hmdb.org/m.asp?m=25971
25972,12242,Hodnette House,,,1998,Texas Historical Commission,30.30628,-97.72872,4300 Avenue F,Austin,Travis County,Texas,"Marker is at the intersection of Avenue F and East 43rd Street, on the right when traveling south on Avenue F. ",,http://www.hmdb.org/m.asp?m=25972
25979,14733,Hotel Provident and Heierman Building,,,1974,Texas Historical Commission,30.26687,-97.74211,115 East 5th Street,Austin,Travis County,Texas,"Marker is at the intersection of East 5th Street and Brazos Street, on the right when traveling east on East 5th Street. ",,http://www.hmdb.org/m.asp?m=25979
25980,6456,Site of Edward Mandell House Home,,,1986,Texas Historical Commission,30.28158,-97.74651,1704 West Avenue,Austin,Travis County,Texas,"Marker is at the intersection of West Avenue and West 18th Street, on the right when traveling south on West Avenue. ",,http://www.hmdb.org/m.asp?m=25980
25991,14424,Hyde Park,,,1989,Texas Historical Commission,30.30657,-97.72973,4301 Speedway,Austin,Travis County,Texas,"Marker is on Speedway just north of West 43rd Street, on the right when traveling north. ",,http://www.hmdb.org/m.asp?m=25991
26000,14916,Claudia Taylor Johnson Hall,The University of Texas System,,1974,Texas Historical Commission,30.26865,-97.74492,210 W 6th Street,Austin,Travis County,Texas,"Marker is on West 6th Street west of Colorado Street, on the right when traveling west. ",,http://www.hmdb.org/m.asp?m=26000
26001,14103,James Wales Jones,,,1957,State of Texas,30.26567,-97.72729,909 Navasota Street,Austin,Travis County,Texas,"Marker can be reached from Navasota Street near East 7th Street, on the right when traveling north. ",,http://www.hmdb.org/m.asp?m=26001
26008,12826,King-Tears Mortuary,,,2002,Texas Historical Commission,30.27278,-97.72613,1300 E 12th St,Austin,Travis County,Texas,"Marker is at the intersection of East 12th Street and San Bernard Street, on the right when traveling west on East 12th Street. ",,http://www.hmdb.org/m.asp?m=26008
26009,13941,Kopperl House,,,1989,Texas Historical Commission,30.30582,-97.72918,4212 Avenue F,Austin,Travis County,Texas,"Marker is at the intersection of Avenue F and East 43rd Street, on the right when traveling south on Avenue F. ",,http://www.hmdb.org/m.asp?m=26009
26035,14246,Jacob Larmour House,,,1982,Texas Historical Commission,30.2813,-97.74514,1711 Rio Grande Street,Austin,Travis County,Texas,Marker is on Rio Grande Street near West 18th Street when traveling north. ,,http://www.hmdb.org/m.asp?m=26035
26040,14254,Jacob Leser House,,,1962,Texas Historical Commission,30.30311,-97.74263,3506 West Avenue,Austin,Travis County,Texas,"Marker is on West Avenue south of West 37th Street, on the right when traveling south. ",,http://www.hmdb.org/m.asp?m=26040
26041,12734,Littlefield Building,,,2002,Texas Historical Commission,30.26803,-97.74232,,Austin,Travis County,Texas,"Marker is at the intersection of 601 Congress Avenue and E 6th Street, on the right when traveling west on 601 Congress Avenue. ",,http://www.hmdb.org/m.asp?m=26041
26042,14889,Littlefield Home,,,1962,Texas Historical Commission,30.28775,-97.7406,,Austin,Travis County,Texas,"Marker is at the intersection of Whitis Avenue and West 24th Street, on the right when traveling south on Whitis Avenue. ",,http://www.hmdb.org/m.asp?m=26042
26044,14469,M.M. Long’s Livery Stable and Opera House,,,1979,Texas Historical Commission,30.27092,-97.74154,901 Congress Avenue,Austin,Travis County,Texas,"Marker is at the intersection of Congress Avenue and East 9th Street, on the right when traveling north on Congress Avenue. ",,http://www.hmdb.org/m.asp?m=26044
26046,14949,Old Bakery,,,1966,Texas Historical Commission,30.2721,-97.74149,1006 Congress Avenue,Austin,Travis County,Texas,"Marker is on Congress Avenue south of West 11th Street, on the right when traveling south. ",,http://www.hmdb.org/m.asp?m=26046
26047,9087,First United Methodist Church of Bartlett,,,1976,Texas Historical Commission,30.79745,-97.43549,645 West Clark Street,Bartlett,Williamson County,Texas,Marker is on West Clark Street (County Route 487). ,,http://www.hmdb.org/m.asp?m=26047
26048,9088,First Presbyterian Church of Bartlett,,,1970,State Historical Survey Committee,30.79574,-97.43258,346 West Pietzsch Street,Bartlett,Williamson County,Texas,Marker is on West Pietzsch Street. ,,http://www.hmdb.org/m.asp?m=26048
26123,14228,Manchaca United Methodist Church,,,1994,Texas Historical Commission,30.14036,-97.83244,1011 FM-1626,Manchaca,Travis County,Texas,"Marker is on Farm to Market Road 1626 W, 0.1 miles east of Manchaca Road, on the right when traveling east. ",,http://www.hmdb.org/m.asp?m=26123
26126,12793,Joseph and Mary Robinson Martin House,,,2001,Texas Historical Commission,30.2708,-97.74827,600 W 7th St,Austin,Travis County,Texas,"Marker is at the intersection of West 7th Street and Nueces Street, on the right when traveling west on West 7th Street. ",,http://www.hmdb.org/m.asp?m=26126
26127,6445,Mary Street Stone House,,,1978,Texas Historical Commission,30.24822,-97.76235,1001 W Mary St,Austin,Travis County,Texas,"Marker is at the intersection of West Mary Street and South 5th Street, on the right when traveling east on West Mary Street. ",,http://www.hmdb.org/m.asp?m=26127
26138,13654,Mathews School,,,2006,Texas Historical Commission,30.27819,-97.76079,906 W Lynn Street,Austin,Travis County,Texas,"Marker is on West Lynn Street, 0.1 miles south of West 9th &#189; Street, on the right when traveling south. ",,http://www.hmdb.org/m.asp?m=26138
26139,6420,Mauthe-Myrick Mansion,,,1981,Texas Historical Commission,30.2773,-97.74415,408 W 14th Street,Austin,Travis County,Texas,"Marker is at the intersection of West 14th Street and San Antonio Street, on the right when traveling west on West 14th Street. ",,http://www.hmdb.org/m.asp?m=26139
26142,15417,Jane Yelvington McCallum,,,1990,Texas Historical Commission,30.29953,-97.74163,613 W 32nd Street,Austin,Travis County,Texas,"Marker is on West 32nd Street east of King Street, on the right when traveling east. ",,http://www.hmdb.org/m.asp?m=26142
26148,15642,Metropolitan African Methodist Episcopal Church,,,1986,Texas Historical Commission,30.26818,-97.72936,1101 E 10th Street,Austin,Travis County,Texas,"Marker is on East 10th Street east of Waller Road, on the right when traveling east. ",,http://www.hmdb.org/m.asp?m=26148
26149,12979,Millbrook (Roy-Hardin House),,,1967,Texas Historical Commission,30.24967,-97.76525,1803 Evergreen Avenue,Austin,Travis County,Texas,"Marker can be reached from Evergreen Avenue just north of Mary Street NW, on the right when traveling north. ",,http://www.hmdb.org/m.asp?m=26149
26158,12243,Moore-Flack House,,,1984,Texas Historical Commission,30.27279,-97.74829,901 Rio Grande St,Austin,Travis County,Texas,"Marker is at the intersection of Rio Grande Street and West 9th Street, on the right when traveling west on Rio Grande Street. ",,http://www.hmdb.org/m.asp?m=26158
26159,14007,Moore’s Crossing Bridge,,,1980,Texas Historical Commission,30.16845,-97.66377,,Austin,Travis County,Texas,"Marker is on Moores Bridge Road near Farm to Market Road 973, on the right when traveling north. ",,http://www.hmdb.org/m.asp?m=26159
26161,14580,Site of Community of Nameless,,,1970,State Historical Survey Committee,30.52521,-97.92764,23436 Nameless Road,Leander,Travis County,Texas,"Marker can be reached from Nameless Road south of Nameless Ranch Road, on the right when traveling south. ",,http://www.hmdb.org/m.asp?m=26161
26163,14838,New Sweden Evangelical Lutheran Church,,,1988,Texas Historical Commission,30.40576,-97.48648,12809 New Sweden Church Rd,Manor,Travis County,Texas,"Marker is on New Sweden Church Road east of Church Lane, on the right when traveling east. ",,http://www.hmdb.org/m.asp?m=26163
26167,2092,The Gage Hotel,,,1981,Texas Historical Commission,30.20675,-103.24622,101 Highway 90 West,Marathon,Brewster County,Texas,"Marker is on North 1st Street (U.S. 90), on the right when traveling west. ",,http://www.hmdb.org/m.asp?m=26167
26185,12695,Oak Hill,,,1969,State Historical Survey Committee,30.23431,-97.86877,,Austin,Travis County,Texas,"Marker is on U.S. 290 west of William Cannon Drive, on the right when traveling west. ",,http://www.hmdb.org/m.asp?m=26185
26186,14600,Peter Henry Oberwetter,,,1977,Texas Historical Commission,30.27559,-97.72842,1601 Navasota Street,Austin,Travis County,Texas,"Marker can be reached from Navasota Street north of East 15th Street, on the right when traveling north. ",,http://www.hmdb.org/m.asp?m=26186
26187,14748,Okewell,,,1983,Texas Historical Commission,30.2807,-97.75303,1505 Windsor Road,Austin,Travis County,Texas,"Marker can be reached from Windsor Road north of West 15th Street, on the right when traveling north. ",,http://www.hmdb.org/m.asp?m=26187
26188,14905,"Onion Creek Lodge 220, A.F. & A.M.",,,1964,State Historical Survey Committee,30.19414,-97.77045,706 N Bluff Drive,Austin,Travis County,Texas,"Marker can be reached from North Bluff Drive north of William Cannon Drive, on the right when traveling north. ",,http://www.hmdb.org/m.asp?m=26188
26189,14111,Openheimer-Montgomery Building,,,1983,Texas Historical Commission,30.26994,-97.74257,105 W 8th St,Austin,Travis County,Texas,"Marker is on West 8th Street west of Congress Street, on the right when traveling east. ",,http://www.hmdb.org/m.asp?m=26189
26190,15675,Swante Palm,"(January 31, 1815 - June 22, 1899)",,1990,Texas Historical Commission,30.27572,-97.72722,1601 Navasota Street,Austin,Travis County,Texas,"Marker can be reached from Navasota Street north of East 14th Street, on the right when traveling north. ",,http://www.hmdb.org/m.asp?m=26190
26203,14684,Paramount Theatre,,,1976,Texas Historical Commission,30.26935,-97.74214,713 Congress Avenue,Austin,Travis County,Texas,"Marker is on Congress Avenue north of West 7th Street, on the right when traveling north. ",,http://www.hmdb.org/m.asp?m=26203
26205,14070,Martin Parmer,,,1936,State of Texas,30.26535,-97.72733,909 Navasota Street,Austin,Travis County,Texas,"Marker can be reached from Navasota Street north of East 7th Street, on the right when traveling north. ",,http://www.hmdb.org/m.asp?m=26205
26209,6413,Pease School,,,1972,State Historical Survey Committee,30.27524,-97.74779,1106 Rio Grande Street,Austin,Travis County,Texas,"Marker is on Rio Grande Street south of West 12th Street, on the right when traveling south. ",,http://www.hmdb.org/m.asp?m=26209
26210,14643,Governor Elisha Marshall Pease,,,1977,Texas Historical Commission,30.27238,-97.74188,,Austin,Travis County,Texas,"Marker can be reached from the intersection of Congress Avenue and West 11th Street, on the right when traveling south. ",,http://www.hmdb.org/m.asp?m=26210
26236,15273,Thomas Pliney Plaster,,,1936,State of Texas,30.26559,-97.7273,909 Navasota Street,Austin,Travis County,Texas,"Marker can be reached from Navasota Street north of East 7th Street, on the right when traveling north. ",,http://www.hmdb.org/m.asp?m=26236
26337,14334,Platt-Simpson Building,,,1982,Texas Historical Commission,30.26736,-97.73992,304 E 6th Street,Austin,Travis County,Texas,"Marker is on East 6th Street west of Trinity Street, on the right when traveling west. ",,http://www.hmdb.org/m.asp?m=26337
26342,15473,The Radkey House,,,1974,Texas Historical Commission,30.30894,-97.75098,3720 Jefferson Street,Austin,Travis County,Texas,"Marker is on Jefferson Street south of West 38th Street, on the right when traveling south. ",,http://www.hmdb.org/m.asp?m=26342
26346,15556,Rebecca Kilgore Stuart Red,(1827 - 1886),,1988,Texas Historical Commission,30.29204,-97.73782,100 E 27th Street,Austin,Travis County,Texas,Marker can be reached from the intersection of 27th Street and Wichita Street. ,,http://www.hmdb.org/m.asp?m=26346
26356,13284,"Building 98, Fort D. A. Russell",,,2004,Texas Historical Commission,30.30154,-104.02714,,Marfa,Presidio County,Texas,"Marker is on Bonnie Street west of South Hill Street, on the right when traveling east. ",,http://www.hmdb.org/m.asp?m=26356
26357,10478,Fort Davis,,,1936,State of Texas,30.59695,-103.89194,,Fort Davis,Jeff Davis County,Texas,Marker can be reached from Lt. Henry Flipper Drive. ,,http://www.hmdb.org/m.asp?m=26357
26358,3208,Marfa Lights,,,1988,Texas Historical Commission,30.2756,-103.88212,,Marfa,Presidio County,Texas,"Marker is on U.S. 90, on the left when traveling west. ",,http://www.hmdb.org/m.asp?m=26358
26360,3951,Paisano Pass,,,1936,State of Texas,30.26869,-103.81662,,Marfa,Presidio County,Texas,"Marker is on US 90/67, on the right when traveling west. ",,http://www.hmdb.org/m.asp?m=26360
26361,157,Ancient Rocks Boundary,,,1970,State Historical Survey Committee,30.37514,-103.53365,,Alpine,Brewster County,Texas,"Marker is at the intersection of U.S. 90 and U.S. 67, on the right when traveling west on U.S. 90. ",,http://www.hmdb.org/m.asp?m=26361
26362,801,Chambers Hotel,,,1965,State Historical Survey Committee,30.20502,-103.24516,,Marathon,Brewster County,Texas,"Marker is on South 1st Street east of Avenue D, on the right when traveling east. ",,http://www.hmdb.org/m.asp?m=26362
26382,10362,Henderson County C.S.A.,Home Town of Texas Confederate,,1964,the State of Texas,32.18715,-95.85135,,Athens,Henderson County,Texas,"Marker is at the intersection of South Palestine Street (State Highway 19) and Carey Circle, on the right when traveling south on South Palestine Street. ",,http://www.hmdb.org/m.asp?m=26382
26383,4309,Robinson-Macken House,,,1986,Texas Historical Commission,30.27128,-97.74912,702 Rio Grande Street,Austin,Travis County,Texas,"Marker is on Rio Grande Street south of West 8th Street, on the right when traveling south. ",,http://www.hmdb.org/m.asp?m=26383
26389,10480,McDonald Observatory of the University of Texas,,,1968,State Historical Survey Committee,30.67125,-104.0236,,Fort Davis,Jeff Davis County,Texas,Marker is on State Highway 78. ,,http://www.hmdb.org/m.asp?m=26389
26390,570,Burgess' Water Hole,,,1936,State of Texas,30.3731,-103.65912,,Alpine,Brewster County,Texas,Marker can be reached from N. Harrison St.. ,,http://www.hmdb.org/m.asp?m=26390
26417,1209,Denuded Ouachita Rock Belt,,,1970,State Historical Survey Committee,30.21295,-102.98842,,Marathon,Brewster County,Texas,"Marker is on U.S. 90, 14 miles east of U.S. 385, on the right when traveling east. ",,http://www.hmdb.org/m.asp?m=26417
26436,3201,Marathon,,,1965,State Historical Survey Committee,30.20628,-103.22874,,Marathon,Brewster County,Texas,Marker is on U.S. 90. ,,http://www.hmdb.org/m.asp?m=26436
26474,9857,Bonner Cemetery,,,1970,State Historical Survey Committee,31.86558,-96.22482,,Fairfield,Freestone County,Texas,Marker is on County Road 151. ,,http://www.hmdb.org/m.asp?m=26474
26477,13844,Site of Marfa Army Air Field,,,2007,Texas Historical Commission,30.2756,-103.88209,,Marfa,Presidio County,Texas,"Marker is on U.S. 90, on the left when traveling west. ",,http://www.hmdb.org/m.asp?m=26477
26492,12244,Old Rock Store,,,1970,Texas Historical Commission,30.23564,-97.859,6266 W Highway 290,Austin,Travis County,Texas,"Marker is on U.S. 290 west of Parkwood Drive, on the right when traveling west. ",,http://www.hmdb.org/m.asp?m=26492
26494,14821,Saint Edward’s University Main Building,,,1972,State Historical Survey Committee,30.22974,-97.755,,Austin,Travis County,Texas,"Marker can be reached from University east of St. Joseph Hill, on the right when traveling east. ",,http://www.hmdb.org/m.asp?m=26494
26495,14433,St. John Church,,,1978,Texas Historical Commission,30.42319,-97.53384,17701 Cameron Road,Pflugerville,Travis County,Texas,"Marker is on Cameron Road north of Magnolia Ranch Cove, on the right when traveling north. ",,http://www.hmdb.org/m.asp?m=26495
26496,14676,Saint Mary’s Cathedral,,,1977,Texas Historical Commission,30.27132,-97.73977,208 E 10th Street,Austin,Travis County,Texas,"Marker is on East 10th Street east of Brazos Street, on the right when traveling east. ",,http://www.hmdb.org/m.asp?m=26496
26497,2162,George W. Sampson Home,,,1982,Texas Historical Commission,30.27388,-97.74786,1003 Rio Grande Street,Austin,Travis County,Texas,"Marker is on Rio Grande Street north of West 10th Street, on the right when traveling north. ",,http://www.hmdb.org/m.asp?m=26497
26498,6450,J.P. Schneider Store,,,1974,Texas Historical Commission,30.26523,-97.74784,401 W 2nd Street,Austin,Travis County,Texas,"Marker is at the intersection of West 2nd Street and Guadalupe Street, on the right when traveling east on West 2nd Street. ",,http://www.hmdb.org/m.asp?m=26498
26528,12245,Scholz Garten,,,1967,Texas Historical Commission,30.27768,-97.73643,,Austin,Travis County,Texas,"Marker is on San Jacinto Boulevard near East 17th Street, on the left when traveling south. ",,http://www.hmdb.org/m.asp?m=26528
26531,14361,The Shipe House,,,1982,Texas Historical Commission,30.30087,-97.73089,3816 Avenue G,Austin,Travis County,Texas,"Marker is at the intersection of Avenue G and East 39th Street, on the right when traveling south on Avenue G. ",,http://www.hmdb.org/m.asp?m=26531
26533,14406,Simpson United Methodist Church,,,1982,Texas Historical Commission,30.27333,-97.72182,1701 E 12th Street,Austin,Travis County,Texas,"Marker is at the intersection of East 12th Street and Leona Street, on the right when traveling east on East 12th Street. ",,http://www.hmdb.org/m.asp?m=26533
26534,3740,Old Hanging Tree,,,1967,Texas Historical Commission,29.4535,-96.94397,,Hallettsville,Lavaca County,Texas,Marker is on Park Road 3. ,,http://www.hmdb.org/m.asp?m=26534
